{"code": "674018", "payload": {"apiVersion": "1.0.0.0", "engineVersion": "", "Point": {"Station": {"code": "674018", "Name": "相生町／西鉄バス", "Type": {"text": "bus", "detail": "local"}, "Yomi": "あいおいちょう"}, "Prefecture": {"code": "40", "Name": "福岡県"}, "GeoPoint": {"longi": "130.45.5.42", "lati": "33.51.0.67", "longi_d": "130.751506", "lati_d": "33.850187", "gcs": "wgs84"}}}}
{"code": "674408", "payload": {"apiVersion": "1.0.0.0", "engineVersion": "", "Point": {"Station": {"code": "674408", "Name": "合川／西鉄バス", "Type": {"text": "bus", "detail": "local"}, "Yomi": "あいかわ"}, "Prefecture": {"code": "40", "Name": "福岡県"}, "GeoPoint": {"longi": "130.33.3.29", "lati": "33.18.44.67", "longi_d": "130.550915", "lati_d": "33.312408", "gcs": "wgs84"}}}}
{"code": "674286", "payload": {"apiVersion": "1.0.0.0", "engineVersion": "", "Point": {"Station": {"code": "674286", "Name": "相川／西鉄バス", "Type": {"text": "bus", "detail": "local"}, "Yomi": "あいごう"}, "Prefecture": {"code": "40", "Name": "福岡県"}, "GeoPoint": {"longi": "130.30.36.31", "lati": "33.15.37.74", "longi_d": "130.510087", "lati_d": "33.260484", "gcs": "wgs84"}}}}
{"code": "677152", "payload": {"apiVersion": "1.0.0.0", "engineVersion": "", "Point": {"Station": {"code": "677152", "Name": "相田／西鉄バス", "Type": {"text": "bus", "detail": "local"}, "Yomi": "あいだ"}, "Prefecture": {"code": "40", "Name": "福岡県"}, "GeoPoint": {"longi": "130.39.32.36", "lati": "33.39.41.88", "longi_d": "130.65899", "lati_d": "33.661633", "gcs": "wgs84"}}}}
{"code": "677150", "payload": {"apiVersion": "1.0.0.0", "engineVersion": "", "Point": {"Station": {"code": "677150", "Name": "相田団地／西鉄バス", "Type": {"text": "bus", "detail": "local"}, "Yomi": "あいだだんち"}, "Prefecture": {"code": "40", "Name": "福岡県"}, "GeoPoint": {"longi": "130.39.41.42", "lati": "33.39.29.42", "longi_d": "130.661506", "lati_d": "33.658172", "gcs": "wgs84"}}}}
{"code": "674474", "payload": {"apiVersion": "1.0.0.0", "engineVersion": "", "Point": {"Station": {"code": "674474", "Name": "安居野／西鉄バス", "Type": {"text": "bus", "detail": "local"}, "Yomi": "あいの"}, "Prefecture": {"code": "40", "Name": "福岡県"}, "GeoPoint": {"longi": "130.34.5.5", "lati": "33.18.58.91", "longi_d": "130.568068", "lati_d": "33.316363", "gcs": "wgs84"}}}}
{"code": "677758", "payload": {"apiVersion": "1.0.0.0", "engineVersion": "", "Point": {"Station": {"code": "677758", "Name": "愛の家車庫／西鉄バス", "Type": {"text": "bus", "detail": "local"}, "Yomi": "あいのいえしゃこ"}, "Prefecture": {"code": "40", "Name": "福岡県"}, "GeoPoint": {"longi": "130.51.18.10", "lati": "33.51.43.87", "longi_d": "130.855028", "lati_d": "33.862187", "gcs": "wgs84"}}}}
{"code": "673606", "payload": {"apiVersion": "1.0.0.0", "engineVersion": "", "Point": {"Station": {"code": "673606", "Name": "愛の家前／西鉄バス", "Type": {"text": "bus", "detail": "local"}, "Yomi": "あいのいえまえ"}, "Prefecture": {"code": "40", "Name": "福岡県"}, "GeoPoint": {"longi": "130.51.24.46", "lati": "33.51.42.46", "longi_d": "130.856794", "lati_d": "33.861793", "gcs": "wgs84"}}}}
{"code": "674487", "payload": {"apiVersion": "1.0.0.0", "engineVersion": "", "Point": {"Station": {"code": "674487", "Name": "合楽／西鉄バス", "Type": {"text": "bus", "detail": "local"}, "Yomi": "あいらく"}, "Prefecture": {"code": "40", "Name": "福岡県"}, "GeoPoint": {"longi": "130.38.30.33", "lati": "33.20.7.76", "longi_d": "130.641759", "lati_d": "33.33549", "gcs": "wgs84"}}}}
{"code": "674486", "payload": {"apiVersion": "1.0.0.0", "engineVersion": "", "Point": {"Station": {"code": "674486", "Name": "合楽団地前／西鉄バス", "Type": {"text": "bus", "detail": "local"}, "Yomi": "あいらくだんちまえ"}, "Prefecture": {"code": "40", "Name": "福岡県"}, "GeoPoint": {"longi": "130.38.14.76", "lati": "33.19.58.40", "longi_d": "130.637434", "lati_d": "33.332888", "gcs": "wgs84"}}}}
{"code": "678230", "payload": {"apiVersion": "1.0.0.0", "engineVersion": "", "Point": {"Station": {"code": "678230", "Name": "アイランドアイ前／西鉄バス", "Type": {"text": "bus", "detail": "local"}, "Yomi": "あいらんどあいまえ"}, "Prefecture": {"code": "40", "Name": "福岡県"}, "GeoPoint": {"longi": "130.24.50.44", "lati": "33.39.57.9", "longi_d": "130.414012", "lati_d": "33.665859", "gcs": "wgs84"}}}}
{"code": "675726", "payload": {"apiVersion": "1.0.0.0", "engineVersion": "", "Point": {"Station": {"code": "675726", "Name": "アイランドシティ中央公園前／西鉄バス", "Type": {"text": "bus", "detail": "local"}, "Yomi": "あいらんどしてぃちゅうおうこうえんまえ"}, "Prefecture": {"code": "40", "Name": "福岡県"}, "GeoPoint": {"longi": "130.25.26.8", "lati": "33.39.49.94", "longi_d": "130.423912", "lati_d": "33.663873", "gcs": "wgs84"}}}}
{"code": "675728", "payload": {"apiVersion": "1.0.0.0", "engineVersion": "", "Point": {"Station": {"code": "675728", "Name": "アイランドシティ照葉／西鉄バス", "Type": {"text": "bus", "detail": "local"}, "Yomi": "あいらんどしてぃてりは"}, "Prefecture": {"code": "40", "Name": "福岡県"}, "GeoPoint": {"longi": "130.25.11.52", "lati": "33.39.39.60", "longi_d": "130.419868", "lati_d": "33.661001", "gcs": "wgs84"}}}}
{"code": "676709", "payload": {"apiVersion": "1.0.0.0", "engineVersion": "", "Point": {"Station": {"code": "676709", "Name": "アイランドパーク／西鉄バス", "Type": {"text": "bus", "detail": "local"}, "Yomi": "あいらんどぱーく"}, "Prefecture": {"code": "40", "Name": "福岡県"}, "GeoPoint": {"longi": "130.18.8.12", "lati": "33.37.53.30", "longi_d": "130.302254", "lati_d": "33.631472", "gcs": "wgs84"}}}}
{"code": "675850", "payload": {"apiVersion": "1.0.0.0", "engineVersion": "", "Point": {"Station": {"code": "675850", "Name": "青木／西鉄バス", "Type": {"text": "bus", "detail": "local"}, "Yomi": "あおき"}, "Prefecture": {"code": "40", "Name": "福岡県"}, "GeoPoint": {"longi": "130.27.9.3", "lati": "33.35.24.68", "longi_d": "130.45251", "lati_d": "33.59019", "gcs": "wgs84"}}}}
{"code": "675845", "payload": {"apiVersion": "1.0.0.0", "engineVersion": "", "Point": {"Station": {"code": "675845", "Name": "青木一丁目／西鉄バス", "Type": {"text": "bus", "detail": "local"}, "Yomi": "あおきいっちょうめ"}, "Prefecture": {"code": "40", "Name": "福岡県"}, "GeoPoint": {"longi": "130.27.20.8", "lati": "33.35.37.85", "longi_d": "130.455579", "lati_d": "33.593848", "gcs": "wgs84"}}}}
{"code": "674679", "payload": {"apiVersion": "1.0.0.0", "engineVersion": "", "Point": {"Station": {"code": "674679", "Name": "青木校入口／西鉄バス", "Type": {"text": "bus", "detail": "local"}, "Yomi": "あおきこういりぐち"}, "Prefecture": {"code": "40", "Name": "福岡県"}, "GeoPoint": {"longi": "130.24.8.96", "lati": "33.14.26.17", "longi_d": "130.402489", "lati_d": "33.240602", "gcs": "wgs84"}}}}
{"code": "677832", "payload": {"apiVersion": "1.0.0.0", "engineVersion": "", "Point": {"Station": {"code": "677832", "Name": "青木島／西鉄バス", "Type": {"text": "bus", "detail": "local"}, "Yomi": "あおきしま"}, "Prefecture": {"code": "40", "Name": "福岡県"}, "GeoPoint": {"longi": "130.24.9.91", "lati": "33.14.48.56", "longi_d": "130.402752", "lati_d": "33.246821", "gcs": "wgs84"}}}}
{"code": "674681", "payload": {"apiVersion": "1.0.0.0", "engineVersion": "", "Point": {"Station": {"code": "674681", "Name": "青木中津大橋／西鉄バス", "Type": {"text": "bus", "detail": "local"}, "Yomi": "あおきなかつおおはし"}, "Prefecture": {"code": "40", "Name": "福岡県"}, "GeoPoint": {"longi": "130.24.22.96", "lati": "33.14.51.37", "longi_d": "130.406379", "lati_d": "33.247603", "gcs": "wgs84"}}}}
{"code": "674646", "payload": {"apiVersion": "1.0.0.0", "engineVersion": "", "Point": {"Station": {"code": "674646", "Name": "青木西／西鉄バス", "Type": {"text": "bus", "detail": "local"}, "Yomi": "あおきにし"}, "Prefecture": {"code": "40", "Name": "福岡県"}, "GeoPoint": {"longi": "130.23.54.59", "lati": "33.14.46.11", "longi_d": "130.398497", "lati_d": "33.246143", "gcs": "wgs84"}}}}
{"code": "675999", "payload": {"apiVersion": "1.0.0.0", "engineVersion": "", "Point": {"Station": {"code": "675999", "Name": "青葉公園北／西鉄バス", "Type": {"text": "bus", "detail": "local"}, "Yomi": "あおばこうえんきた"}, "Prefecture": {"code": "40", "Name": "福岡県"}, "GeoPoint": {"longi": "130.27.42.71", "lati": "33.39.3.79", "longi_d": "130.461865", "lati_d": "33.651053", "gcs": "wgs84"}}}}
{"code": "675938", "payload": {"apiVersion": "1.0.0.0", "engineVersion": "", "Point": {"Station": {"code": "675938", "Name": "青葉五丁目集会所前／西鉄バス", "Type": {"text": "bus", "detail": "local"}, "Yomi": "あおばごちょうめしゅうかいしょまえ"}, "Prefecture": {"code": "40", "Name": "福岡県"}, "GeoPoint": {"longi": "130.28.5.7", "lati": "33.38.46.3", "longi_d": "130.468075", "lati_d": "33.646121", "gcs": "wgs84"}}}}
{"code": "676001", "payload": {"apiVersion": "1.0.0.0", "engineVersion": "", "Point": {"Station": {"code": "676001", "Name": "青葉五丁目第一／西鉄バス", "Type": {"text": "bus", "detail": "local"}, "Yomi": "あおばごちょうめだいいち"}, "Prefecture": {"code": "40", "Name": "福岡県"}, "GeoPoint": {"longi": "130.27.51.82", "lati": "33.38.47.95", "longi_d": "130.464395", "lati_d": "33.646653", "gcs": "wgs84"}}}}
{"code": "676000", "payload": {"apiVersion": "1.0.0.0", "engineVersion": "", "Point": {"Station": {"code": "676000", "Name": "青葉五丁目第二／西鉄バス", "Type": {"text": "bus", "detail": "local"}, "Yomi": "あおばごちょうめだいに"}, "Prefecture": {"code": "40", "Name": "福岡県"}, "GeoPoint": {"longi": "130.27.56.63", "lati": "33.38.53.41", "longi_d": "130.465731", "lati_d": "33.64817", "gcs": "wgs84"}}}}
{"code": "673761", "payload": {"apiVersion": "1.0.0.0", "engineVersion": "", "Point": {"Station": {"code": "673761", "Name": "青葉車庫／西鉄バス", "Type": {"text": "bus", "detail": "local"}, "Yomi": "あおばしゃこ"}, "Prefecture": {"code": "40", "Name": "福岡県"}, "GeoPoint": {"longi": "130.51.59.69", "lati": "33.53.14.45", "longi_d": "130.866581", "lati_d": "33.887349", "gcs": "wgs84"}}}}
{"code": "676002", "payload": {"apiVersion": "1.0.0.0", "engineVersion": "", "Point": {"Station": {"code": "676002", "Name": "青葉小学校前／西鉄バス", "Type": {"text": "bus", "detail": "local"}, "Yomi": "あおばしょうがっこうまえ"}, "Prefecture": {"code": "40", "Name": "福岡県"}, "GeoPoint": {"longi": "130.27.43.93", "lati": "33.38.46.93", "longi_d": "130.462203", "lati_d": "33.64637", "gcs": "wgs84"}}}}
{"code": "676407", "payload": {"apiVersion": "1.0.0.0", "engineVersion": "", "Point": {"Station": {"code": "676407", "Name": "青葉台(宗像市)／西鉄バス", "Type": {"text": "bus", "detail": "local"}, "Yomi": "あおばだい"}, "Prefecture": {"code": "40", "Name": "福岡県"}, "GeoPoint": {"longi": "130.34.55.70", "lati": "33.46.38.11", "longi_d": "130.582137", "lati_d": "33.777253", "gcs": "wgs84"}}}}
{"code": "677053", "payload": {"apiVersion": "1.0.0.0", "engineVersion": "", "Point": {"Station": {"code": "677053", "Name": "青葉台(太宰府市)／西鉄バス", "Type": {"text": "bus", "detail": "local"}, "Yomi": "あおばだい"}, "Prefecture": {"code": "40", "Name": "福岡県"}, "GeoPoint": {"longi": "130.29.21.74", "lati": "33.30.30.82", "longi_d": "130.489371", "lati_d": "33.508561", "gcs": "wgs84"}}}}
{"code": "675990", "payload": {"apiVersion": "1.0.0.0", "engineVersion": "", "Point": {"Station": {"code": "675990", "Name": "青葉台入口(福岡市)／西鉄バス", "Type": {"text": "bus", "detail": "local"}, "Yomi": "あおばだいいりぐち"}, "Prefecture": {"code": "40", "Name": "福岡県"}, "GeoPoint": {"longi": "130.27.34.29", "lati": "33.38.27.66", "longi_d": "130.459526", "lati_d": "33.641018", "gcs": "wgs84"}}}}
{"code": "676408", "payload": {"apiVersion": "1.0.0.0", "engineVersion": "", "Point": {"Station": {"code": "676408", "Name": "青葉台入口(宗像市)／西鉄バス", "Type": {"text": "bus", "detail": "local"}, "Yomi": "あおばだいいりぐち"}, "Prefecture": {"code": "40", "Name": "福岡県"}, "GeoPoint": {"longi": "130.34.41.4", "lati": "33.46.36.51", "longi_d": "130.578066", "lati_d": "33.776808", "gcs": "wgs84"}}}}
{"code": "675991", "payload": {"apiVersion": "1.0.0.0", "engineVersion": "", "Point": {"Station": {"code": "675991", "Name": "青葉二丁目／西鉄バス", "Type": {"text": "bus", "detail": "local"}, "Yomi": "あおばにちょうめ"}, "Prefecture": {"code": "40", "Name": "福岡県"}, "GeoPoint": {"longi": "130.27.27.66", "lati": "33.38.38.4", "longi_d": "130.457685", "lati_d": "33.643901", "gcs": "wgs84"}}}}
{"code": "675998", "payload": {"apiVersion": "1.0.0.0", "engineVersion": "", "Point": {"Station": {"code": "675998", "Name": "青葉四丁目／西鉄バス", "Type": {"text": "bus", "detail": "local"}, "Yomi": "あおばよんちょうめ"}, "Prefecture": {"code": "40", "Name": "福岡県"}, "GeoPoint": {"longi": "130.27.55.85", "lati": "33.38.57.95", "longi_d": "130.465515", "lati_d": "33.649431", "gcs": "wgs84"}}}}
{"code": "676528", "payload": {"apiVersion": "1.0.0.0", "engineVersion": "", "Point": {"Station": {"code": "676528", "Name": "青柳／西鉄バス", "Type": {"text": "bus", "detail": "local"}, "Yomi": "あおやぎ"}, "Prefecture": {"code": "40", "Name": "福岡県"}, "GeoPoint": {"longi": "130.28.21.44", "lati": "33.42.20.88", "longi_d": "130.472622", "lati_d": "33.705801", "gcs": "wgs84"}}}}
{"code": "676530", "payload": {"apiVersion": "1.0.0.0", "engineVersion": "", "Point": {"Station": {"code": "676530", "Name": "青柳四ツ角／西鉄バス", "Type": {"text": "bus", "detail": "local"}, "Yomi": "あおやぎよつかど"}, "Prefecture": {"code": "40", "Name": "福岡県"}, "GeoPoint": {"longi": "130.28.56.52", "lati": "33.43.0.32", "longi_d": "130.482366", "lati_d": "33.716755", "gcs": "wgs84"}}}}
{"code": "677333", "payload": {"apiVersion": "1.0.0.0", "engineVersion": "", "Point": {"Station": {"code": "677333", "Name": "赤池工業団地／西鉄バス", "Type": {"text": "bus", "detail": "local"}, "Yomi": "あかいけこうぎょうだんち"}, "Prefecture": {"code": "40", "Name": "福岡県"}, "GeoPoint": {"longi": "130.45.15.85", "lati": "33.41.19.34", "longi_d": "130.754403", "lati_d": "33.688707", "gcs": "wgs84"}}}}
{"code": "675879", "payload": {"apiVersion": "1.0.0.0", "engineVersion": "", "Point": {"Station": {"code": "675879", "Name": "赤井手／西鉄バス", "Type": {"text": "bus", "detail": "local"}, "Yomi": "あかいで"}, "Prefecture": {"code": "40", "Name": "福岡県"}, "GeoPoint": {"longi": "130.30.6.72", "lati": "33.33.56.62", "longi_d": "130.501865", "lati_d": "33.565727", "gcs": "wgs84"}}}}
{"code": "677717", "payload": {"apiVersion": "1.0.0.0", "engineVersion": "", "Point": {"Station": {"code": "677717", "Name": "赤隈／西鉄バス", "Type": {"text": "bus", "detail": "local"}, "Yomi": "あかくま"}, "Prefecture": {"code": "40", "Name": "福岡県"}, "GeoPoint": {"longi": "130.43.57.56", "lati": "33.45.18.42", "longi_d": "130.732657", "lati_d": "33.755116", "gcs": "wgs84"}}}}
{"code": "673376", "payload": {"apiVersion": "1.0.0.0", "engineVersion": "", "Point": {"Station": {"code": "673376", "Name": "赤坂(北九州市)／西鉄バス", "Type": {"text": "bus", "detail": "local"}, "Yomi": "あかさか"}, "Prefecture": {"code": "40", "Name": "福岡県"}, "GeoPoint": {"longi": "130.54.17.59", "lati": "33.53.23.35", "longi_d": "130.904887", "lati_d": "33.889819", "gcs": "wgs84"}}}}
{"code": "674290", "payload": {"apiVersion": "1.0.0.0", "engineVersion": "", "Point": {"Station": {"code": "674290", "Name": "赤坂(筑後市)／西鉄バス", "Type": {"text": "bus", "detail": "local"}, "Yomi": "あかさか"}, "Prefecture": {"code": "40", "Name": "福岡県"}, "GeoPoint": {"longi": "130.30.26.0", "lati": "33.14.9.89", "longi_d": "130.507222", "lati_d": "33.236082", "gcs": "wgs84"}}}}
{"code": "675820", "payload": {"apiVersion": "1.0.0.0", "engineVersion": "", "Point": {"Station": {"code": "675820", "Name": "赤坂(須惠町)／西鉄バス", "Type": {"text": "bus", "detail": "local"}, "Yomi": "あかさか"}, "Prefecture": {"code": "40", "Name": "福岡県"}, "GeoPoint": {"longi": "130.30.17.22", "lati": "33.35.45.70", "longi_d": "130.504782", "lati_d": "33.596029", "gcs": "wgs84"}}}}
{"code": "677260", "payload": {"apiVersion": "1.0.0.0", "engineVersion": "", "Point": {"Station": {"code": "677260", "Name": "赤坂(飯塚市)／西鉄バス", "Type": {"text": "bus", "detail": "local"}, "Yomi": "あかさか"}, "Prefecture": {"code": "40", "Name": "福岡県"}, "GeoPoint": {"longi": "130.44.10.35", "lati": "33.37.15.91", "longi_d": "130.73621", "lati_d": "33.621086", "gcs": "wgs84"}}}}
{"code": "673601", "payload": {"apiVersion": "1.0.0.0", "engineVersion": "", "Point": {"Station": {"code": "673601", "Name": "赤坂海岸第一／西鉄バス", "Type": {"text": "bus", "detail": "local"}, "Yomi": "あかさかかいがんだいいち"}, "Prefecture": {"code": "40", "Name": "福岡県"}, "GeoPoint": {"longi": "130.54.28.84", "lati": "33.53.37.4", "longi_d": "130.908011", "lati_d": "33.893621", "gcs": "wgs84"}}}}
{"code": "673603", "payload": {"apiVersion": "1.0.0.0", "engineVersion": "", "Point": {"Station": {"code": "673603", "Name": "赤坂海岸第三／西鉄バス", "Type": {"text": "bus", "detail": "local"}, "Yomi": "あかさかかいがんだいさん"}, "Prefecture": {"code": "40", "Name": "福岡県"}, "GeoPoint": {"longi": "130.54.43.57", "lati": "33.53.41.17", "longi_d": "130.912103", "lati_d": "33.894768", "gcs": "wgs84"}}}}
{"code": "673602", "payload": {"apiVersion": "1.0.0.0", "engineVersion": "", "Point": {"Station": {"code": "673602", "Name": "赤坂海岸第二／西鉄バス", "Type": {"text": "bus", "detail": "local"}, "Yomi": "あかさかかいがんだいに"}, "Prefecture": {"code": "40", "Name": "福岡県"}, "GeoPoint": {"longi": "130.54.34.83", "lati": "33.53.39.75", "longi_d": "130.909674", "lati_d": "33.894374", "gcs": "wgs84"}}}}
{"code": "673604", "payload": {"apiVersion": "1.0.0.0", "engineVersion": "", "Point": {"Station": {"code": "673604", "Name": "赤坂海岸第四／西鉄バス", "Type": {"text": "bus", "detail": "local"}, "Yomi": "あかさかかいがんだいよん"}, "Prefecture": {"code": "40", "Name": "福岡県"}, "GeoPoint": {"longi": "130.54.55.9", "lati": "33.53.38.99", "longi_d": "130.915302", "lati_d": "33.894163", "gcs": "wgs84"}}}}
{"code": "676024", "payload": {"apiVersion": "1.0.0.0", "engineVersion": "", "Point": {"Station": {"code": "676024", "Name": "赤坂三丁目／西鉄バス", "Type": {"text": "bus", "detail": "local"}, "Yomi": "あかさかさんちょうめ"}, "Prefecture": {"code": "40", "Name": "福岡県"}, "GeoPoint": {"longi": "130.23.3.23", "lati": "33.34.59.29", "longi_d": "130.38423", "lati_d": "33.583137", "gcs": "wgs84"}}}}
{"code": "677261", "payload": {"apiVersion": "1.0.0.0", "engineVersion": "", "Point": {"Station": {"code": "677261", "Name": "赤坂新町／西鉄バス", "Type": {"text": "bus", "detail": "local"}, "Yomi": "あかさかしんまち"}, "Prefecture": {"code": "40", "Name": "福岡県"}, "GeoPoint": {"longi": "130.44.14.24", "lati": "33.37.12.61", "longi_d": "130.73729", "lati_d": "33.62017", "gcs": "wgs84"}}}}
{"code": "676025", "payload": {"apiVersion": "1.0.0.0", "engineVersion": "", "Point": {"Station": {"code": "676025", "Name": "赤坂二丁目／西鉄バス", "Type": {"text": "bus", "detail": "local"}, "Yomi": "あかさかにちょうめ"}, "Prefecture": {"code": "40", "Name": "福岡県"}, "GeoPoint": {"longi": "130.23.17.54", "lati": "33.35.2.57", "longi_d": "130.388204", "lati_d": "33.584048", "gcs": "wgs84"}}}}
{"code": "677262", "payload": {"apiVersion": "1.0.0.0", "engineVersion": "", "Point": {"Station": {"code": "677262", "Name": "赤坂橋／西鉄バス", "Type": {"text": "bus", "detail": "local"}, "Yomi": "あかさかばし"}, "Prefecture": {"code": "40", "Name": "福岡県"}, "GeoPoint": {"longi": "130.44.18.69", "lati": "33.37.7.47", "longi_d": "130.738524", "lati_d": "33.618742", "gcs": "wgs84"}}}}
{"code": "675326", "payload": {"apiVersion": "1.0.0.0", "engineVersion": "", "Point": {"Station": {"code": "675326", "Name": "赤坂門／西鉄バス", "Type": {"text": "bus", "detail": "local"}, "Yomi": "あかさかもん"}, "Prefecture": {"code": "40", "Name": "福岡県"}, "GeoPoint": {"longi": "130.23.26.64", "lati": "33.35.18.49", "longi_d": "130.390732", "lati_d": "33.588469", "gcs": "wgs84"}}}}
{"code": "676856", "payload": {"apiVersion": "1.0.0.0", "engineVersion": "", "Point": {"Station": {"code": "676856", "Name": "赤坂門(明治通)／西鉄バス", "Type": {"text": "bus", "detail": "local"}, "Yomi": "あかさかもん"}, "Prefecture": {"code": "40", "Name": "福岡県"}, "GeoPoint": {"longi": "130.23.24.44", "lati": "33.35.20.22", "longi_d": "130.390121", "lati_d": "33.58895", "gcs": "wgs84"}}}}
{"code": "676271", "payload": {"apiVersion": "1.0.0.0", "engineVersion": "", "Point": {"Station": {"code": "676271", "Name": "赤鳥居／西鉄バス", "Type": {"text": "bus", "detail": "local"}, "Yomi": "あかとりい"}, "Prefecture": {"code": "40", "Name": "福岡県"}, "GeoPoint": {"longi": "130.36.38.63", "lati": "33.49.49.56", "longi_d": "130.61073", "lati_d": "33.830434", "gcs": "wgs84"}}}}
{"code": "673522", "payload": {"apiVersion": "1.0.0.0", "engineVersion": "", "Point": {"Station": {"code": "673522", "Name": "赤畑入口／西鉄バス", "Type": {"text": "bus", "detail": "local"}, "Yomi": "あかはたいりぐち"}, "Prefecture": {"code": "40", "Name": "福岡県"}, "GeoPoint": {"longi": "130.57.24.18", "lati": "33.50.45.79", "longi_d": "130.956717", "lati_d": "33.846052", "gcs": "wgs84"}}}}
{"code": "676264", "payload": {"apiVersion": "1.0.0.0", "engineVersion": "", "Point": {"Station": {"code": "676264", "Name": "赤間営業所／西鉄バス", "Type": {"text": "bus", "detail": "local"}, "Yomi": "あかまえいぎょうしょ"}, "Prefecture": {"code": "40", "Name": "福岡県"}, "GeoPoint": {"longi": "130.35.28.35", "lati": "33.48.31.67", "longi_d": "130.591208", "lati_d": "33.808796", "gcs": "wgs84"}}}}
{"code": "676259", "payload": {"apiVersion": "1.0.0.0", "engineVersion": "", "Point": {"Station": {"code": "676259", "Name": "赤間駅前／西鉄バス", "Type": {"text": "bus", "detail": "local"}, "Yomi": "あかまえきまえ"}, "Prefecture": {"code": "40", "Name": "福岡県"}, "GeoPoint": {"longi": "130.34.7.90", "lati": "33.48.31.12", "longi_d": "130.568862", "lati_d": "33.808644", "gcs": "wgs84"}}}}
{"code": "676412", "payload": {"apiVersion": "1.0.0.0", "engineVersion": "", "Point": {"Station": {"code": "676412", "Name": "赤間駅南口／西鉄バス", "Type": {"text": "bus", "detail": "local"}, "Yomi": "あかまえきみなみぐち"}, "Prefecture": {"code": "40", "Name": "福岡県"}, "GeoPoint": {"longi": "130.34.11.60", "lati": "33.48.28.19", "longi_d": "130.56989", "lati_d": "33.80783", "gcs": "wgs84"}}}}
{"code": "676391", "payload": {"apiVersion": "1.0.0.0", "engineVersion": "", "Point": {"Station": {"code": "676391", "Name": "赤馬館前／西鉄バス", "Type": {"text": "bus", "detail": "local"}, "Yomi": "あかまかんまえ"}, "Prefecture": {"code": "40", "Name": "福岡県"}, "GeoPoint": {"longi": "130.35.22.65", "lati": "33.48.17.90", "longi_d": "130.589625", "lati_d": "33.804972", "gcs": "wgs84"}}}}
{"code": "676393", "payload": {"apiVersion": "1.0.0.0", "engineVersion": "", "Point": {"Station": {"code": "676393", "Name": "赤間小学校／西鉄バス", "Type": {"text": "bus", "detail": "local"}, "Yomi": "あかましょうがっこう"}, "Prefecture": {"code": "40", "Name": "福岡県"}, "GeoPoint": {"longi": "130.35.2.70", "lati": "33.48.1.34", "longi_d": "130.584084", "lati_d": "33.800373", "gcs": "wgs84"}}}}
{"code": "675842", "payload": {"apiVersion": "1.0.0.0", "engineVersion": "", "Point": {"Station": {"code": "675842", "Name": "アクシオン福岡前／西鉄バス", "Type": {"text": "bus", "detail": "local"}, "Yomi": "あくしおんふくおかまえ"}, "Prefecture": {"code": "40", "Name": "福岡県"}, "GeoPoint": {"longi": "130.27.47.22", "lati": "33.34.50.40", "longi_d": "130.463118", "lati_d": "33.580666", "gcs": "wgs84"}}}}
{"code": "676723", "payload": {"apiVersion": "1.0.0.0", "engineVersion": "", "Point": {"Station": {"code": "676723", "Name": "アクロス福岡・水鏡天満宮前／西鉄バス", "Type": {"text": "bus", "detail": "local"}, "Yomi": "あくろすふくおかすいきょうてんまんぐうまえ"}, "Prefecture": {"code": "40", "Name": "福岡県"}, "GeoPoint": {"longi": "130.24.9.29", "lati": "33.35.31.83", "longi_d": "130.402581", "lati_d": "33.592176", "gcs": "wgs84"}}}}
{"code": "676970", "payload": {"apiVersion": "1.0.0.0", "engineVersion": "", "Point": {"Station": {"code": "676970", "Name": "曙町／西鉄バス", "Type": {"text": "bus", "detail": "local"}, "Yomi": "あけぼのちょう"}, "Prefecture": {"code": "40", "Name": "福岡県"}, "GeoPoint": {"longi": "130.31.45.23", "lati": "33.29.43.49", "longi_d": "130.52923", "lati_d": "33.495415", "gcs": "wgs84"}}}}
{"code": "675503", "payload": {"apiVersion": "1.0.0.0", "engineVersion": "", "Point": {"Station": {"code": "675503", "Name": "曙二丁目／西鉄バス", "Type": {"text": "bus", "detail": "local"}, "Yomi": "あけぼのにちょうめ"}, "Prefecture": {"code": "40", "Name": "福岡県"}, "GeoPoint": {"longi": "130.21.43.1", "lati": "33.34.31.34", "longi_d": "130.361948", "lati_d": "33.575371", "gcs": "wgs84"}}}}
{"code": "673611", "payload": {"apiVersion": "1.0.0.0", "engineVersion": "", "Point": {"Station": {"code": "673611", "Name": "浅香通り／西鉄バス", "Type": {"text": "bus", "detail": "local"}, "Yomi": "あさかどおり"}, "Prefecture": {"code": "40", "Name": "福岡県"}, "GeoPoint": {"longi": "130.53.6.69", "lati": "33.53.4.12", "longi_d": "130.885191", "lati_d": "33.884477", "gcs": "wgs84"}}}}
{"code": "674256", "payload": {"apiVersion": "1.0.0.0", "engineVersion": "", "Point": {"Station": {"code": "674256", "Name": "浅川学園台入口／西鉄バス", "Type": {"text": "bus", "detail": "local"}, "Yomi": "あさかわがくえんだいいりぐち"}, "Prefecture": {"code": "40", "Name": "福岡県"}, "GeoPoint": {"longi": "130.42.38.43", "lati": "33.52.57.29", "longi_d": "130.710674", "lati_d": "33.88258", "gcs": "wgs84"}}}}
{"code": "677699", "payload": {"apiVersion": "1.0.0.0", "engineVersion": "", "Point": {"Station": {"code": "677699", "Name": "浅木／西鉄バス", "Type": {"text": "bus", "detail": "local"}, "Yomi": "あさぎ"}, "Prefecture": {"code": "40", "Name": "福岡県"}, "GeoPoint": {"longi": "130.40.9.56", "lati": "33.49.49.44", "longi_d": "130.669323", "lati_d": "33.830399", "gcs": "wgs84"}}}}
{"code": "677700", "payload": {"apiVersion": "1.0.0.0", "engineVersion": "", "Point": {"Station": {"code": "677700", "Name": "浅木小学校／西鉄バス", "Type": {"text": "bus", "detail": "local"}, "Yomi": "あさぎしょうがっこう"}, "Prefecture": {"code": "40", "Name": "福岡県"}, "GeoPoint": {"longi": "130.40.4.90", "lati": "33.49.59.15", "longi_d": "130.668028", "lati_d": "33.833099", "gcs": "wgs84"}}}}
{"code": "676066", "payload": {"apiVersion": "1.0.0.0", "engineVersion": "", "Point": {"Station": {"code": "676066", "Name": "朝倉街道／西鉄バス", "Type": {"text": "bus", "detail": "local"}, "Yomi": "あさくらがいどう"}, "Prefecture": {"code": "40", "Name": "福岡県"}, "GeoPoint": {"longi": "130.31.57.26", "lati": "33.29.5.0", "longi_d": "130.532572", "lati_d": "33.484722", "gcs": "wgs84"}}}}
{"code": "676118", "payload": {"apiVersion": "1.0.0.0", "engineVersion": "", "Point": {"Station": {"code": "676118", "Name": "朝倉光陽高校前／西鉄バス", "Type": {"text": "bus", "detail": "local"}, "Yomi": "あさくらこうようこうこうまえ"}, "Prefecture": {"code": "40", "Name": "福岡県"}, "GeoPoint": {"longi": "130.48.21.92", "lati": "33.21.41.9", "longi_d": "130.806088", "lati_d": "33.361415", "gcs": "wgs84"}}}}
{"code": "676089", "payload": {"apiVersion": "1.0.0.0", "engineVersion": "", "Point": {"Station": {"code": "676089", "Name": "朝倉総合庁舎入口／西鉄バス", "Type": {"text": "bus", "detail": "local"}, "Yomi": "あさくらそうごうちょうしゃいりぐち"}, "Prefecture": {"code": "40", "Name": "福岡県"}, "GeoPoint": {"longi": "130.39.16.44", "lati": "33.25.27.76", "longi_d": "130.654567", "lati_d": "33.424378", "gcs": "wgs84"}}}}
{"code": "676107", "payload": {"apiVersion": "1.0.0.0", "engineVersion": "", "Point": {"Station": {"code": "676107", "Name": "朝倉東小前／西鉄バス", "Type": {"text": "bus", "detail": "local"}, "Yomi": "あさくらひがししょうまえ"}, "Prefecture": {"code": "40", "Name": "福岡県"}, "GeoPoint": {"longi": "130.44.6.14", "lati": "33.22.52.52", "longi_d": "130.735038", "lati_d": "33.381257", "gcs": "wgs84"}}}}
{"code": "674338", "payload": {"apiVersion": "1.0.0.0", "engineVersion": "", "Point": {"Station": {"code": "674338", "Name": "朝妻／西鉄バス", "Type": {"text": "bus", "detail": "local"}, "Yomi": "あさづま"}, "Prefecture": {"code": "40", "Name": "福岡県"}, "GeoPoint": {"longi": "130.32.50.94", "lati": "33.18.37.41", "longi_d": "130.547484", "lati_d": "33.310391", "gcs": "wgs84"}}}}
{"code": "673564", "payload": {"apiVersion": "1.0.0.0", "engineVersion": "", "Point": {"Station": {"code": "673564", "Name": "浅野二丁目／西鉄バス", "Type": {"text": "bus", "detail": "local"}, "Yomi": "あさのにちょうめ"}, "Prefecture": {"code": "40", "Name": "福岡県"}, "GeoPoint": {"longi": "130.53.8.75", "lati": "33.53.12.80", "longi_d": "130.885763", "lati_d": "33.886888", "gcs": "wgs84"}}}}
{"code": "676074", "payload": {"apiVersion": "1.0.0.0", "engineVersion": "", "Point": {"Station": {"code": "676074", "Name": "朝日／西鉄バス", "Type": {"text": "bus", "detail": "local"}, "Yomi": "あさひ"}, "Prefecture": {"code": "40", "Name": "福岡県"}, "GeoPoint": {"longi": "130.34.11.36", "lati": "33.28.6.8", "longi_d": "130.569822", "lati_d": "33.468355", "gcs": "wgs84"}}}}
{"code": "673546", "payload": {"apiVersion": "1.0.0.0", "engineVersion": "", "Point": {"Station": {"code": "673546", "Name": "朝日ケ丘(北九州市)／西鉄バス", "Type": {"text": "bus", "detail": "local"}, "Yomi": "あさひがおか"}, "Prefecture": {"code": "40", "Name": "福岡県"}, "GeoPoint": {"longi": "130.57.30.83", "lati": "33.54.45.88", "longi_d": "130.958564", "lati_d": "33.912745", "gcs": "wgs84"}}}}
{"code": "674817", "payload": {"apiVersion": "1.0.0.0", "engineVersion": "", "Point": {"Station": {"code": "674817", "Name": "朝日ケ丘(大牟田市)／西鉄バス", "Type": {"text": "bus", "detail": "local"}, "Yomi": "あさひがおか"}, "Prefecture": {"code": "40", "Name": "福岡県"}, "GeoPoint": {"longi": "130.28.17.96", "lati": "33.0.50.48", "longi_d": "130.471657", "lati_d": "33.014021", "gcs": "wgs84"}}}}
{"code": "677054", "payload": {"apiVersion": "1.0.0.0", "engineVersion": "", "Point": {"Station": {"code": "677054", "Name": "旭ケ丘／西鉄バス", "Type": {"text": "bus", "detail": "local"}, "Yomi": "あさひがおか"}, "Prefecture": {"code": "40", "Name": "福岡県"}, "GeoPoint": {"longi": "130.29.12.97", "lati": "33.30.32.0", "longi_d": "130.486935", "lati_d": "33.508888", "gcs": "wgs84"}}}}
{"code": "677055", "payload": {"apiVersion": "1.0.0.0", "engineVersion": "", "Point": {"Station": {"code": "677055", "Name": "旭ケ丘公園前／西鉄バス", "Type": {"text": "bus", "detail": "local"}, "Yomi": "あさひがおかこうえんまえ"}, "Prefecture": {"code": "40", "Name": "福岡県"}, "GeoPoint": {"longi": "130.29.1.41", "lati": "33.30.32.13", "longi_d": "130.483725", "lati_d": "33.508924", "gcs": "wgs84"}}}}
{"code": "676283", "payload": {"apiVersion": "1.0.0.0", "engineVersion": "", "Point": {"Station": {"code": "676283", "Name": "旭中／西鉄バス", "Type": {"text": "bus", "detail": "local"}, "Yomi": "あさひなか"}, "Prefecture": {"code": "40", "Name": "福岡県"}, "GeoPoint": {"longi": "130.37.16.17", "lati": "33.51.18.36", "longi_d": "130.621158", "lati_d": "33.855101", "gcs": "wgs84"}}}}
{"code": "676073", "payload": {"apiVersion": "1.0.0.0", "engineVersion": "", "Point": {"Station": {"code": "676073", "Name": "朝日西／西鉄バス", "Type": {"text": "bus", "detail": "local"}, "Yomi": "あさひにし"}, "Prefecture": {"code": "40", "Name": "福岡県"}, "GeoPoint": {"longi": "130.34.1.6", "lati": "33.28.14.30", "longi_d": "130.566962", "lati_d": "33.470638", "gcs": "wgs84"}}}}
{"code": "676289", "payload": {"apiVersion": "1.0.0.0", "engineVersion": "", "Point": {"Station": {"code": "676289", "Name": "旭西／西鉄バス", "Type": {"text": "bus", "detail": "local"}, "Yomi": "あさひにし"}, "Prefecture": {"code": "40", "Name": "福岡県"}, "GeoPoint": {"longi": "130.37.5.90", "lati": "33.51.18.56", "longi_d": "130.618306", "lati_d": "33.855156", "gcs": "wgs84"}}}}
{"code": "676284", "payload": {"apiVersion": "1.0.0.0", "engineVersion": "", "Point": {"Station": {"code": "676284", "Name": "旭東／西鉄バス", "Type": {"text": "bus", "detail": "local"}, "Yomi": "あさひひがし"}, "Prefecture": {"code": "40", "Name": "福岡県"}, "GeoPoint": {"longi": "130.37.16.37", "lati": "33.51.26.27", "longi_d": "130.621214", "lati_d": "33.857298", "gcs": "wgs84"}}}}
{"code": "675155", "payload": {"apiVersion": "1.0.0.0", "engineVersion": "", "Point": {"Station": {"code": "675155", "Name": "アサヒビール前／西鉄バス", "Type": {"text": "bus", "detail": "local"}, "Yomi": "あさひびーるまえ"}, "Prefecture": {"code": "40", "Name": "福岡県"}, "GeoPoint": {"longi": "130.25.46.15", "lati": "33.34.19.57", "longi_d": "130.429487", "lati_d": "33.572102", "gcs": "wgs84"}}}}
{"code": "674799", "payload": {"apiVersion": "1.0.0.0", "engineVersion": "", "Point": {"Station": {"code": "674799", "Name": "旭町／西鉄バス", "Type": {"text": "bus", "detail": "local"}, "Yomi": "あさひまち"}, "Prefecture": {"code": "40", "Name": "福岡県"}, "GeoPoint": {"longi": "130.27.2.20", "lati": "33.2.13.65", "longi_d": "130.45061", "lati_d": "33.037124", "gcs": "wgs84"}}}}
{"code": "674363", "payload": {"apiVersion": "1.0.0.0", "engineVersion": "", "Point": {"Station": {"code": "674363", "Name": "旭町団地前／西鉄バス", "Type": {"text": "bus", "detail": "local"}, "Yomi": "あさひまちだんちまえ"}, "Prefecture": {"code": "40", "Name": "福岡県"}, "GeoPoint": {"longi": "130.30.33.65", "lati": "33.19.28.56", "longi_d": "130.509348", "lati_d": "33.3246", "gcs": "wgs84"}}}}
{"code": "675824", "payload": {"apiVersion": "1.0.0.0", "engineVersion": "", "Point": {"Station": {"code": "675824", "Name": "アザレアホール前／西鉄バス", "Type": {"text": "bus", "detail": "local"}, "Yomi": "あざれあほーるまえ"}, "Prefecture": {"code": "40", "Name": "福岡県"}, "GeoPoint": {"longi": "130.30.32.26", "lati": "33.35.10.46", "longi_d": "130.508961", "lati_d": "33.586238", "gcs": "wgs84"}}}}
{"code": "673774", "payload": {"apiVersion": "1.0.0.0", "engineVersion": "", "Point": {"Station": {"code": "673774", "Name": "足原／西鉄バス", "Type": {"text": "bus", "detail": "local"}, "Yomi": "あしはら"}, "Prefecture": {"code": "40", "Name": "福岡県"}, "GeoPoint": {"longi": "130.53.52.18", "lati": "33.52.7.69", "longi_d": "130.897826", "lati_d": "33.868802", "gcs": "wgs84"}}}}
{"code": "677433", "payload": {"apiVersion": "1.0.0.0", "engineVersion": "", "Point": {"Station": {"code": "677433", "Name": "東町(田川市)／西鉄バス", "Type": {"text": "bus", "detail": "local"}, "Yomi": "あずままち"}, "Prefecture": {"code": "40", "Name": "福岡県"}, "GeoPoint": {"longi": "130.49.20.35", "lati": "33.39.6.61", "longi_d": "130.822321", "lati_d": "33.651835", "gcs": "wgs84"}}}}
{"code": "677835", "payload": {"apiVersion": "1.0.0.0", "engineVersion": "", "Point": {"Station": {"code": "677835", "Name": "東町(大川市)／西鉄バス", "Type": {"text": "bus", "detail": "local"}, "Yomi": "あずままち"}, "Prefecture": {"code": "40", "Name": "福岡県"}, "GeoPoint": {"longi": "130.22.31.91", "lati": "33.12.18.97", "longi_d": "130.375532", "lati_d": "33.205269", "gcs": "wgs84"}}}}
{"code": "673913", "payload": {"apiVersion": "1.0.0.0", "engineVersion": "", "Point": {"Station": {"code": "673913", "Name": "浅生市場前／西鉄バス", "Type": {"text": "bus", "detail": "local"}, "Yomi": "あそういちばまえ"}, "Prefecture": {"code": "40", "Name": "福岡県"}, "GeoPoint": {"longi": "130.49.26.42", "lati": "33.53.49.80", "longi_d": "130.824006", "lati_d": "33.897167", "gcs": "wgs84"}}}}
{"code": "673871", "payload": {"apiVersion": "1.0.0.0", "engineVersion": "", "Point": {"Station": {"code": "673871", "Name": "浅生公園前／西鉄バス", "Type": {"text": "bus", "detail": "local"}, "Yomi": "あそうこうえんまえ"}, "Prefecture": {"code": "40", "Name": "福岡県"}, "GeoPoint": {"longi": "130.49.42.86", "lati": "33.53.39.63", "longi_d": "130.828573", "lati_d": "33.894342", "gcs": "wgs84"}}}}
{"code": "677248", "payload": {"apiVersion": "1.0.0.0", "engineVersion": "", "Point": {"Station": {"code": "677248", "Name": "麻生塾／西鉄バス", "Type": {"text": "bus", "detail": "local"}, "Yomi": "あそうじゅく"}, "Prefecture": {"code": "40", "Name": "福岡県"}, "GeoPoint": {"longi": "130.42.31.57", "lati": "33.38.41.71", "longi_d": "130.708769", "lati_d": "33.644919", "gcs": "wgs84"}}}}
{"code": "673870", "payload": {"apiVersion": "1.0.0.0", "engineVersion": "", "Point": {"Station": {"code": "673870", "Name": "浅生通り／西鉄バス", "Type": {"text": "bus", "detail": "local"}, "Yomi": "あそうどおり"}, "Prefecture": {"code": "40", "Name": "福岡県"}, "GeoPoint": {"longi": "130.49.29.68", "lati": "33.53.47.71", "longi_d": "130.824912", "lati_d": "33.896586", "gcs": "wgs84"}}}}
{"code": "677312", "payload": {"apiVersion": "1.0.0.0", "engineVersion": "", "Point": {"Station": {"code": "677312", "Name": "愛宕／西鉄バス", "Type": {"text": "bus", "detail": "local"}, "Yomi": "あたご"}, "Prefecture": {"code": "40", "Name": "福岡県"}, "GeoPoint": {"longi": "130.41.48.75", "lati": "33.39.14.44", "longi_d": "130.696875", "lati_d": "33.654012", "gcs": "wgs84"}}}}
{"code": "675454", "payload": {"apiVersion": "1.0.0.0", "engineVersion": "", "Point": {"Station": {"code": "675454", "Name": "愛宕一丁目(都市高速下)／西鉄バス", "Type": {"text": "bus", "detail": "local"}, "Yomi": "あたごいっちょうめ"}, "Prefecture": {"code": "40", "Name": "福岡県"}, "GeoPoint": {"longi": "130.20.6.90", "lati": "33.34.53.8", "longi_d": "130.335251", "lati_d": "33.581412", "gcs": "wgs84"}}}}
{"code": "675455", "payload": {"apiVersion": "1.0.0.0", "engineVersion": "", "Point": {"Station": {"code": "675455", "Name": "愛宕一丁目／西鉄バス", "Type": {"text": "bus", "detail": "local"}, "Yomi": "あたごいっちょうめ"}, "Prefecture": {"code": "40", "Name": "福岡県"}, "GeoPoint": {"longi": "130.19.57.59", "lati": "33.34.54.28", "longi_d": "130.332664", "lati_d": "33.581745", "gcs": "wgs84"}}}}
{"code": "677314", "payload": {"apiVersion": "1.0.0.0", "engineVersion": "", "Point": {"Station": {"code": "677314", "Name": "愛宕公園入口／西鉄バス", "Type": {"text": "bus", "detail": "local"}, "Yomi": "あたごこうえんいりぐち"}, "Prefecture": {"code": "40", "Name": "福岡県"}, "GeoPoint": {"longi": "130.42.17.43", "lati": "33.39.4.14", "longi_d": "130.704841", "lati_d": "33.651149", "gcs": "wgs84"}}}}
{"code": "676887", "payload": {"apiVersion": "1.0.0.0", "engineVersion": "", "Point": {"Station": {"code": "676887", "Name": "愛宕公民館前／西鉄バス", "Type": {"text": "bus", "detail": "local"}, "Yomi": "あたごこうみんかんまえ"}, "Prefecture": {"code": "40", "Name": "福岡県"}, "GeoPoint": {"longi": "130.20.25.71", "lati": "33.35.15.11", "longi_d": "130.340475", "lati_d": "33.58753", "gcs": "wgs84"}}}}
{"code": "678024", "payload": {"apiVersion": "1.0.0.0", "engineVersion": "", "Point": {"Station": {"code": "678024", "Name": "愛宕下／西鉄バス", "Type": {"text": "bus", "detail": "local"}, "Yomi": "あたごした"}, "Prefecture": {"code": "40", "Name": "福岡県"}, "GeoPoint": {"longi": "130.20.16.27", "lati": "33.34.57.41", "longi_d": "130.337853", "lati_d": "33.582614", "gcs": "wgs84"}}}}
{"code": "674232", "payload": {"apiVersion": "1.0.0.0", "engineVersion": "", "Point": {"Station": {"code": "674232", "Name": "愛宕神社(八幡西区)／西鉄バス", "Type": {"text": "bus", "detail": "local"}, "Yomi": "あたごじんじゃ"}, "Prefecture": {"code": "40", "Name": "福岡県"}, "GeoPoint": {"longi": "130.44.29.76", "lati": "33.49.33.92", "longi_d": "130.7416", "lati_d": "33.826089", "gcs": "wgs84"}}}}
{"code": "676832", "payload": {"apiVersion": "1.0.0.0", "engineVersion": "", "Point": {"Station": {"code": "676832", "Name": "愛宕神社入口／西鉄バス", "Type": {"text": "bus", "detail": "local"}, "Yomi": "あたごじんじゃいりぐち"}, "Prefecture": {"code": "40", "Name": "福岡県"}, "GeoPoint": {"longi": "130.20.3.49", "lati": "33.35.17.31", "longi_d": "130.334303", "lati_d": "33.588141", "gcs": "wgs84"}}}}
{"code": "676839", "payload": {"apiVersion": "1.0.0.0", "engineVersion": "", "Point": {"Station": {"code": "676839", "Name": "愛宕神社前／西鉄バス", "Type": {"text": "bus", "detail": "local"}, "Yomi": "あたごじんじゃまえ"}, "Prefecture": {"code": "40", "Name": "福岡県"}, "GeoPoint": {"longi": "130.20.13.9", "lati": "33.34.55.59", "longi_d": "130.336969", "lati_d": "33.582108", "gcs": "wgs84"}}}}
{"code": "677317", "payload": {"apiVersion": "1.0.0.0", "engineVersion": "", "Point": {"Station": {"code": "677317", "Name": "愛宕団地／西鉄バス", "Type": {"text": "bus", "detail": "local"}, "Yomi": "あたごだんち"}, "Prefecture": {"code": "40", "Name": "福岡県"}, "GeoPoint": {"longi": "130.42.19.61", "lati": "33.39.11.53", "longi_d": "130.705447", "lati_d": "33.653202", "gcs": "wgs84"}}}}
{"code": "677315", "payload": {"apiVersion": "1.0.0.0", "engineVersion": "", "Point": {"Station": {"code": "677315", "Name": "愛宕団地集会所／西鉄バス", "Type": {"text": "bus", "detail": "local"}, "Yomi": "あたごだんちしゅうかいじょ"}, "Prefecture": {"code": "40", "Name": "福岡県"}, "GeoPoint": {"longi": "130.42.16.37", "lati": "33.38.55.23", "longi_d": "130.704548", "lati_d": "33.648674", "gcs": "wgs84"}}}}
{"code": "676826", "payload": {"apiVersion": "1.0.0.0", "engineVersion": "", "Point": {"Station": {"code": "676826", "Name": "愛宕二丁目／西鉄バス", "Type": {"text": "bus", "detail": "local"}, "Yomi": "あたごにちょうめ"}, "Prefecture": {"code": "40", "Name": "福岡県"}, "GeoPoint": {"longi": "130.20.2.64", "lati": "33.34.59.38", "longi_d": "130.334067", "lati_d": "33.583161", "gcs": "wgs84"}}}}
{"code": "676836", "payload": {"apiVersion": "1.0.0.0", "engineVersion": "", "Point": {"Station": {"code": "676836", "Name": "愛宕浜一丁目／西鉄バス", "Type": {"text": "bus", "detail": "local"}, "Yomi": "あたごはまいっちょうめ"}, "Prefecture": {"code": "40", "Name": "福岡県"}, "GeoPoint": {"longi": "130.20.12.2", "lati": "33.35.34.87", "longi_d": "130.336672", "lati_d": "33.593019", "gcs": "wgs84"}}}}
{"code": "678068", "payload": {"apiVersion": "1.0.0.0", "engineVersion": "", "Point": {"Station": {"code": "678068", "Name": "愛宕浜小学校前／西鉄バス", "Type": {"text": "bus", "detail": "local"}, "Yomi": "あたごはましょうがっこうまえ"}, "Prefecture": {"code": "40", "Name": "福岡県"}, "GeoPoint": {"longi": "130.19.45.29", "lati": "33.35.42.74", "longi_d": "130.329248", "lati_d": "33.595207", "gcs": "wgs84"}}}}
{"code": "676837", "payload": {"apiVersion": "1.0.0.0", "engineVersion": "", "Point": {"Station": {"code": "676837", "Name": "愛宕浜二丁目／西鉄バス", "Type": {"text": "bus", "detail": "local"}, "Yomi": "あたごはまにちょうめ"}, "Prefecture": {"code": "40", "Name": "福岡県"}, "GeoPoint": {"longi": "130.20.1.77", "lati": "33.35.41.51", "longi_d": "130.333824", "lati_d": "33.594863", "gcs": "wgs84"}}}}
{"code": "676835", "payload": {"apiVersion": "1.0.0.0", "engineVersion": "", "Point": {"Station": {"code": "676835", "Name": "愛宕浜四丁目／西鉄バス", "Type": {"text": "bus", "detail": "local"}, "Yomi": "あたごはまよんちょうめ"}, "Prefecture": {"code": "40", "Name": "福岡県"}, "GeoPoint": {"longi": "130.19.50.86", "lati": "33.35.29.32", "longi_d": "130.330795", "lati_d": "33.591477", "gcs": "wgs84"}}}}
{"code": "675453", "payload": {"apiVersion": "1.0.0.0", "engineVersion": "", "Point": {"Station": {"code": "675453", "Name": "愛宕南／西鉄バス", "Type": {"text": "bus", "detail": "local"}, "Yomi": "あたごみなみ"}, "Prefecture": {"code": "40", "Name": "福岡県"}, "GeoPoint": {"longi": "130.19.46.80", "lati": "33.34.46.92", "longi_d": "130.329668", "lati_d": "33.579701", "gcs": "wgs84"}}}}
{"code": "676889", "payload": {"apiVersion": "1.0.0.0", "engineVersion": "", "Point": {"Station": {"code": "676889", "Name": "愛宕四丁目／西鉄バス", "Type": {"text": "bus", "detail": "local"}, "Yomi": "あたごよんちょうめ"}, "Prefecture": {"code": "40", "Name": "福岡県"}, "GeoPoint": {"longi": "130.20.27.84", "lati": "33.35.13.78", "longi_d": "130.341066", "lati_d": "33.587161", "gcs": "wgs84"}}}}
{"code": "673632", "payload": {"apiVersion": "1.0.0.0", "engineVersion": "", "Point": {"Station": {"code": "673632", "Name": "足立／西鉄バス", "Type": {"text": "bus", "detail": "local"}, "Yomi": "あだち"}, "Prefecture": {"code": "40", "Name": "福岡県"}, "GeoPoint": {"longi": "130.53.59.51", "lati": "33.52.7.32", "longi_d": "130.899865", "lati_d": "33.868701", "gcs": "wgs84"}}}}
{"code": "675387", "payload": {"apiVersion": "1.0.0.0", "engineVersion": "", "Point": {"Station": {"code": "675387", "Name": "穴観音／西鉄バス", "Type": {"text": "bus", "detail": "local"}, "Yomi": "あながんのん"}, "Prefecture": {"code": "40", "Name": "福岡県"}, "GeoPoint": {"longi": "130.24.9.37", "lati": "33.33.26.26", "longi_d": "130.402602", "lati_d": "33.557295", "gcs": "wgs84"}}}}
{"code": "674030", "payload": {"apiVersion": "1.0.0.0", "engineVersion": "", "Point": {"Station": {"code": "674030", "Name": "穴生小学校前／西鉄バス", "Type": {"text": "bus", "detail": "local"}, "Yomi": "あのおしょうがっこうまえ"}, "Prefecture": {"code": "40", "Name": "福岡県"}, "GeoPoint": {"longi": "130.44.41.65", "lati": "33.51.38.48", "longi_d": "130.744903", "lati_d": "33.860688", "gcs": "wgs84"}}}}
{"code": "674013", "payload": {"apiVersion": "1.0.0.0", "engineVersion": "", "Point": {"Station": {"code": "674013", "Name": "穴生中学校前／西鉄バス", "Type": {"text": "bus", "detail": "local"}, "Yomi": "あのおちゅうがっこうまえ"}, "Prefecture": {"code": "40", "Name": "福岡県"}, "GeoPoint": {"longi": "130.45.6.96", "lati": "33.51.31.10", "longi_d": "130.751934", "lati_d": "33.858639", "gcs": "wgs84"}}}}
{"code": "674029", "payload": {"apiVersion": "1.0.0.0", "engineVersion": "", "Point": {"Station": {"code": "674029", "Name": "穴生電停前／西鉄バス", "Type": {"text": "bus", "detail": "local"}, "Yomi": "あのおでんていまえ"}, "Prefecture": {"code": "40", "Name": "福岡県"}, "GeoPoint": {"longi": "130.44.41.27", "lati": "33.51.28.32", "longi_d": "130.744798", "lati_d": "33.857866", "gcs": "wgs84"}}}}
{"code": "674016", "payload": {"apiVersion": "1.0.0.0", "engineVersion": "", "Point": {"Station": {"code": "674016", "Name": "穴生ドーム／西鉄バス", "Type": {"text": "bus", "detail": "local"}, "Yomi": "あのおどーむ"}, "Prefecture": {"code": "40", "Name": "福岡県"}, "GeoPoint": {"longi": "130.45.4.49", "lati": "33.51.13.31", "longi_d": "130.751248", "lati_d": "33.853698", "gcs": "wgs84"}}}}
{"code": "674027", "payload": {"apiVersion": "1.0.0.0", "engineVersion": "", "Point": {"Station": {"code": "674027", "Name": "穴生ドーム南口／西鉄バス", "Type": {"text": "bus", "detail": "local"}, "Yomi": "あのおどーむみなみぐち"}, "Prefecture": {"code": "40", "Name": "福岡県"}, "GeoPoint": {"longi": "130.45.16.52", "lati": "33.51.8.40", "longi_d": "130.754589", "lati_d": "33.852334", "gcs": "wgs84"}}}}
{"code": "673992", "payload": {"apiVersion": "1.0.0.0", "engineVersion": "", "Point": {"Station": {"code": "673992", "Name": "穴生橋／西鉄バス", "Type": {"text": "bus", "detail": "local"}, "Yomi": "あのおばし"}, "Prefecture": {"code": "40", "Name": "福岡県"}, "GeoPoint": {"longi": "130.44.35.57", "lati": "33.51.50.90", "longi_d": "130.743215", "lati_d": "33.864138", "gcs": "wgs84"}}}}
{"code": "675382", "payload": {"apiVersion": "1.0.0.0", "engineVersion": "", "Point": {"Station": {"code": "675382", "Name": "油山／西鉄バス", "Type": {"text": "bus", "detail": "local"}, "Yomi": "あぶらやま"}, "Prefecture": {"code": "40", "Name": "福岡県"}, "GeoPoint": {"longi": "130.22.47.74", "lati": "33.32.12.86", "longi_d": "130.379927", "lati_d": "33.536906", "gcs": "wgs84"}}}}
{"code": "675381", "payload": {"apiVersion": "1.0.0.0", "engineVersion": "", "Point": {"Station": {"code": "675381", "Name": "油山団地口／西鉄バス", "Type": {"text": "bus", "detail": "local"}, "Yomi": "あぶらやまだんちぐち"}, "Prefecture": {"code": "40", "Name": "福岡県"}, "GeoPoint": {"longi": "130.22.48.15", "lati": "33.32.15.65", "longi_d": "130.380043", "lati_d": "33.53768", "gcs": "wgs84"}}}}
{"code": "676052", "payload": {"apiVersion": "1.0.0.0", "engineVersion": "", "Point": {"Station": {"code": "676052", "Name": "油山団地前／西鉄バス", "Type": {"text": "bus", "detail": "local"}, "Yomi": "あぶらやまだんちまえ"}, "Prefecture": {"code": "40", "Name": "福岡県"}, "GeoPoint": {"longi": "130.22.40.76", "lati": "33.32.16.57", "longi_d": "130.377988", "lati_d": "33.537936", "gcs": "wgs84"}}}}
{"code": "673224", "payload": {"apiVersion": "1.0.0.0", "engineVersion": "", "Point": {"Station": {"code": "673224", "Name": "安部山入口／西鉄バス", "Type": {"text": "bus", "detail": "local"}, "Yomi": "あべやまいりぐち"}, "Prefecture": {"code": "40", "Name": "福岡県"}, "GeoPoint": {"longi": "130.54.10.17", "lati": "33.50.43.31", "longi_d": "130.902825", "lati_d": "33.845363", "gcs": "wgs84"}}}}
{"code": "673330", "payload": {"apiVersion": "1.0.0.0", "engineVersion": "", "Point": {"Station": {"code": "673330", "Name": "安部山公園口／西鉄バス", "Type": {"text": "bus", "detail": "local"}, "Yomi": "あべやまこうえんぐち"}, "Prefecture": {"code": "40", "Name": "福岡県"}, "GeoPoint": {"longi": "130.54.26.4", "lati": "33.50.54.61", "longi_d": "130.907232", "lati_d": "33.848504", "gcs": "wgs84"}}}}
{"code": "676091", "payload": {"apiVersion": "1.0.0.0", "engineVersion": "", "Point": {"Station": {"code": "676091", "Name": "甘木／西鉄バス", "Type": {"text": "bus", "detail": "local"}, "Yomi": "あまぎ"}, "Prefecture": {"code": "40", "Name": "福岡県"}, "GeoPoint": {"longi": "130.39.30.41", "lati": "33.25.22.26", "longi_d": "130.658447", "lati_d": "33.42285", "gcs": "wgs84"}}}}
{"code": "677755", "payload": {"apiVersion": "1.0.0.0", "engineVersion": "", "Point": {"Station": {"code": "677755", "Name": "甘木営業所／西鉄バス", "Type": {"text": "bus", "detail": "local"}, "Yomi": "あまぎえいぎょうしょ"}, "Prefecture": {"code": "40", "Name": "福岡県"}, "GeoPoint": {"longi": "130.39.48.51", "lati": "33.25.14.19", "longi_d": "130.663475", "lati_d": "33.420609", "gcs": "wgs84"}}}}
{"code": "676088", "payload": {"apiVersion": "1.0.0.0", "engineVersion": "", "Point": {"Station": {"code": "676088", "Name": "甘木川／西鉄バス", "Type": {"text": "bus", "detail": "local"}, "Yomi": "あまぎがわ"}, "Prefecture": {"code": "40", "Name": "福岡県"}, "GeoPoint": {"longi": "130.39.3.91", "lati": "33.25.37.27", "longi_d": "130.651087", "lati_d": "33.42702", "gcs": "wgs84"}}}}
{"code": "673245", "payload": {"apiVersion": "1.0.0.0", "engineVersion": "", "Point": {"Station": {"code": "673245", "Name": "雨窪／西鉄バス", "Type": {"text": "bus", "detail": "local"}, "Yomi": "あまくぼ"}, "Prefecture": {"code": "40", "Name": "福岡県"}, "GeoPoint": {"longi": "130.58.26.82", "lati": "33.47.52.79", "longi_d": "130.974118", "lati_d": "33.797997", "gcs": "wgs84"}}}}
{"code": "676193", "payload": {"apiVersion": "1.0.0.0", "engineVersion": "", "Point": {"Station": {"code": "676193", "Name": "雨堤／西鉄バス", "Type": {"text": "bus", "detail": "local"}, "Yomi": "あまづつみ"}, "Prefecture": {"code": "40", "Name": "福岡県"}, "GeoPoint": {"longi": "130.36.53.78", "lati": "33.50.46.88", "longi_d": "130.61494", "lati_d": "33.846357", "gcs": "wgs84"}}}}
{"code": "676072", "payload": {"apiVersion": "1.0.0.0", "engineVersion": "", "Point": {"Station": {"code": "676072", "Name": "天山／西鉄バス", "Type": {"text": "bus", "detail": "local"}, "Yomi": "あまやま"}, "Prefecture": {"code": "40", "Name": "福岡県"}, "GeoPoint": {"longi": "130.33.23.43", "lati": "33.28.41.44", "longi_d": "130.556509", "lati_d": "33.478179", "gcs": "wgs84"}}}}
{"code": "676675", "payload": {"apiVersion": "1.0.0.0", "engineVersion": "", "Point": {"Station": {"code": "676675", "Name": "網屋立筋／西鉄バス", "Type": {"text": "bus", "detail": "local"}, "Yomi": "あみやたてすじ"}, "Prefecture": {"code": "40", "Name": "福岡県"}, "GeoPoint": {"longi": "130.25.7.60", "lati": "33.37.13.84", "longi_d": "130.418778", "lati_d": "33.620512", "gcs": "wgs84"}}}}
{"code": "676822", "payload": {"apiVersion": "1.0.0.0", "engineVersion": "", "Point": {"Station": {"code": "676822", "Name": "網屋町／西鉄バス", "Type": {"text": "bus", "detail": "local"}, "Yomi": "あみやちょう"}, "Prefecture": {"code": "40", "Name": "福岡県"}, "GeoPoint": {"longi": "130.25.20.18", "lati": "33.37.6.59", "longi_d": "130.422272", "lati_d": "33.618498", "gcs": "wgs84"}}}}
{"code": "677102", "payload": {"apiVersion": "1.0.0.0", "engineVersion": "", "Point": {"Station": {"code": "677102", "Name": "洗出／西鉄バス", "Type": {"text": "bus", "detail": "local"}, "Yomi": "あらいだし"}, "Prefecture": {"code": "40", "Name": "福岡県"}, "GeoPoint": {"longi": "130.30.14.44", "lati": "33.30.52.77", "longi_d": "130.504012", "lati_d": "33.51466", "gcs": "wgs84"}}}}
{"code": "676728", "payload": {"apiVersion": "1.0.0.0", "engineVersion": "", "Point": {"Station": {"code": "676728", "Name": "荒江／西鉄バス", "Type": {"text": "bus", "detail": "local"}, "Yomi": "あらえ"}, "Prefecture": {"code": "40", "Name": "福岡県"}, "GeoPoint": {"longi": "130.21.28.54", "lati": "33.34.26.2", "longi_d": "130.357927", "lati_d": "33.573893", "gcs": "wgs84"}}}}
{"code": "675507", "payload": {"apiVersion": "1.0.0.0", "engineVersion": "", "Point": {"Station": {"code": "675507", "Name": "荒江団地／西鉄バス", "Type": {"text": "bus", "detail": "local"}, "Yomi": "あらえだんち"}, "Prefecture": {"code": "40", "Name": "福岡県"}, "GeoPoint": {"longi": "130.21.37.38", "lati": "33.34.17.11", "longi_d": "130.360383", "lati_d": "33.571421", "gcs": "wgs84"}}}}
{"code": "676729", "payload": {"apiVersion": "1.0.0.0", "engineVersion": "", "Point": {"Station": {"code": "676729", "Name": "荒江四角／西鉄バス", "Type": {"text": "bus", "detail": "local"}, "Yomi": "あらえよつかど"}, "Prefecture": {"code": "40", "Name": "福岡県"}, "GeoPoint": {"longi": "130.21.24.29", "lati": "33.34.14.8", "longi_d": "130.356747", "lati_d": "33.570577", "gcs": "wgs84"}}}}
{"code": "675773", "payload": {"apiVersion": "1.0.0.0", "engineVersion": "", "Point": {"Station": {"code": "675773", "Name": "新生／西鉄バス", "Type": {"text": "bus", "detail": "local"}, "Yomi": "あらお"}, "Prefecture": {"code": "40", "Name": "福岡県"}, "GeoPoint": {"longi": "130.29.50.73", "lati": "33.35.4.20", "longi_d": "130.497426", "lati_d": "33.5845", "gcs": "wgs84"}}}}
{"code": "676372", "payload": {"apiVersion": "1.0.0.0", "engineVersion": "", "Point": {"Station": {"code": "676372", "Name": "荒開／西鉄バス", "Type": {"text": "bus", "detail": "local"}, "Yomi": "あらかい"}, "Prefecture": {"code": "40", "Name": "福岡県"}, "GeoPoint": {"longi": "130.30.23.1", "lati": "33.50.17.84", "longi_d": "130.506391", "lati_d": "33.838289", "gcs": "wgs84"}}}}
{"code": "676330", "payload": {"apiVersion": "1.0.0.0", "engineVersion": "", "Point": {"Station": {"code": "676330", "Name": "荒樫／西鉄バス", "Type": {"text": "bus", "detail": "local"}, "Yomi": "あらかし"}, "Prefecture": {"code": "40", "Name": "福岡県"}, "GeoPoint": {"longi": "130.31.43.81", "lati": "33.51.53.74", "longi_d": "130.528835", "lati_d": "33.864929", "gcs": "wgs84"}}}}
{"code": "674307", "payload": {"apiVersion": "1.0.0.0", "engineVersion": "", "Point": {"Station": {"code": "674307", "Name": "荒木駅前／西鉄バス", "Type": {"text": "bus", "detail": "local"}, "Yomi": "あらきえきまえ"}, "Prefecture": {"code": "40", "Name": "福岡県"}, "GeoPoint": {"longi": "130.30.7.69", "lati": "33.16.35.63", "longi_d": "130.502137", "lati_d": "33.276563", "gcs": "wgs84"}}}}
{"code": "673950", "payload": {"apiVersion": "1.0.0.0", "engineVersion": "", "Point": {"Station": {"code": "673950", "Name": "荒手／西鉄バス", "Type": {"text": "bus", "detail": "local"}, "Yomi": "あらて"}, "Prefecture": {"code": "40", "Name": "福岡県"}, "GeoPoint": {"longi": "130.48.50.44", "lati": "33.53.5.37", "longi_d": "130.814011", "lati_d": "33.884826", "gcs": "wgs84"}}}}
{"code": "674118", "payload": {"apiVersion": "1.0.0.0", "engineVersion": "", "Point": {"Station": {"code": "674118", "Name": "新手／西鉄バス", "Type": {"text": "bus", "detail": "local"}, "Yomi": "あらて"}, "Prefecture": {"code": "40", "Name": "福岡県"}, "GeoPoint": {"longi": "130.42.39.30", "lati": "33.49.0.53", "longi_d": "130.710917", "lati_d": "33.816815", "gcs": "wgs84"}}}}
{"code": "675230", "payload": {"apiVersion": "1.0.0.0", "engineVersion": "", "Point": {"Station": {"code": "675230", "Name": "荒戸一丁目／西鉄バス", "Type": {"text": "bus", "detail": "local"}, "Yomi": "あらといっちょうめ"}, "Prefecture": {"code": "40", "Name": "福岡県"}, "GeoPoint": {"longi": "130.22.45.14", "lati": "33.35.24.62", "longi_d": "130.379205", "lati_d": "33.590172", "gcs": "wgs84"}}}}
{"code": "675190", "payload": {"apiVersion": "1.0.0.0", "engineVersion": "", "Point": {"Station": {"code": "675190", "Name": "荒戸二丁目／西鉄バス", "Type": {"text": "bus", "detail": "local"}, "Yomi": "あらとにちょうめ"}, "Prefecture": {"code": "40", "Name": "福岡県"}, "GeoPoint": {"longi": "130.22.35.23", "lati": "33.35.33.84", "longi_d": "130.376452", "lati_d": "33.592733", "gcs": "wgs84"}}}}
{"code": "675535", "payload": {"apiVersion": "1.0.0.0", "engineVersion": "", "Point": {"Station": {"code": "675535", "Name": "現人橋／西鉄バス", "Type": {"text": "bus", "detail": "local"}, "Yomi": "あらひとばし"}, "Prefecture": {"code": "40", "Name": "福岡県"}, "GeoPoint": {"longi": "130.25.14.10", "lati": "33.30.25.59", "longi_d": "130.420583", "lati_d": "33.507109", "gcs": "wgs84"}}}}
{"code": "674780", "payload": {"apiVersion": "1.0.0.0", "engineVersion": "", "Point": {"Station": {"code": "674780", "Name": "有明高専前／西鉄バス", "Type": {"text": "bus", "detail": "local"}, "Yomi": "ありあけこうせんまえ"}, "Prefecture": {"code": "40", "Name": "福岡県"}, "GeoPoint": {"longi": "130.28.21.16", "lati": "33.0.14.89", "longi_d": "130.472544", "lati_d": "33.004136", "gcs": "wgs84"}}}}
{"code": "675106", "payload": {"apiVersion": "1.0.0.0", "engineVersion": "", "Point": {"Station": {"code": "675106", "Name": "ありあけ新世校入口／西鉄バス", "Type": {"text": "bus", "detail": "local"}, "Yomi": "ありあけしんせいこういりぐち"}, "Prefecture": {"code": "40", "Name": "福岡県"}, "GeoPoint": {"longi": "130.28.13.24", "lati": "33.4.15.33", "longi_d": "130.470343", "lati_d": "33.070926", "gcs": "wgs84"}}}}
{"code": "674710", "payload": {"apiVersion": "1.0.0.0", "engineVersion": "", "Point": {"Station": {"code": "674710", "Name": "有明橋／西鉄バス", "Type": {"text": "bus", "detail": "local"}, "Yomi": "ありあけばし"}, "Prefecture": {"code": "40", "Name": "福岡県"}, "GeoPoint": {"longi": "130.23.23.32", "lati": "33.9.46.9", "longi_d": "130.38981", "lati_d": "33.162804", "gcs": "wgs84"}}}}
{"code": "677252", "payload": {"apiVersion": "1.0.0.0", "engineVersion": "", "Point": {"Station": {"code": "677252", "Name": "有井／西鉄バス", "Type": {"text": "bus", "detail": "local"}, "Yomi": "ありい"}, "Prefecture": {"code": "40", "Name": "福岡県"}, "GeoPoint": {"longi": "130.43.27.40", "lati": "33.38.59.72", "longi_d": "130.724279", "lati_d": "33.649921", "gcs": "wgs84"}}}}
{"code": "677251", "payload": {"apiVersion": "1.0.0.0", "engineVersion": "", "Point": {"Station": {"code": "677251", "Name": "有井団地／西鉄バス", "Type": {"text": "bus", "detail": "local"}, "Yomi": "ありいだんち"}, "Prefecture": {"code": "40", "Name": "福岡県"}, "GeoPoint": {"longi": "130.43.6.61", "lati": "33.38.47.26", "longi_d": "130.718502", "lati_d": "33.646461", "gcs": "wgs84"}}}}
{"code": "675469", "payload": {"apiVersion": "1.0.0.0", "engineVersion": "", "Point": {"Station": {"code": "675469", "Name": "有住小学校前／西鉄バス", "Type": {"text": "bus", "detail": "local"}, "Yomi": "ありずみしょうがっこうまえ"}, "Prefecture": {"code": "40", "Name": "福岡県"}, "GeoPoint": {"longi": "130.19.53.82", "lati": "33.33.35.68", "longi_d": "130.331616", "lati_d": "33.559911", "gcs": "wgs84"}}}}
{"code": "675238", "payload": {"apiVersion": "1.0.0.0", "engineVersion": "", "Point": {"Station": {"code": "675238", "Name": "有田／西鉄バス", "Type": {"text": "bus", "detail": "local"}, "Yomi": "ありた"}, "Prefecture": {"code": "40", "Name": "福岡県"}, "GeoPoint": {"longi": "130.20.13.87", "lati": "33.33.37.98", "longi_d": "130.337185", "lati_d": "33.560549", "gcs": "wgs84"}}}}
{"code": "675472", "payload": {"apiVersion": "1.0.0.0", "engineVersion": "", "Point": {"Station": {"code": "675472", "Name": "有田一丁目／西鉄バス", "Type": {"text": "bus", "detail": "local"}, "Yomi": "ありたいっちょうめ"}, "Prefecture": {"code": "40", "Name": "福岡県"}, "GeoPoint": {"longi": "130.20.3.46", "lati": "33.33.47.57", "longi_d": "130.334296", "lati_d": "33.563213", "gcs": "wgs84"}}}}
{"code": "677255", "payload": {"apiVersion": "1.0.0.0", "engineVersion": "", "Point": {"Station": {"code": "677255", "Name": "有安／西鉄バス", "Type": {"text": "bus", "detail": "local"}, "Yomi": "ありやす"}, "Prefecture": {"code": "40", "Name": "福岡県"}, "GeoPoint": {"longi": "130.43.44.35", "lati": "33.38.34.91", "longi_d": "130.728987", "lati_d": "33.643031", "gcs": "wgs84"}}}}
{"code": "678198", "payload": {"apiVersion": "1.0.0.0", "engineVersion": "", "Point": {"Station": {"code": "678198", "Name": "アルゾ飯塚幸袋店前／西鉄バス", "Type": {"text": "bus", "detail": "local"}, "Yomi": "あるぞいいづかこうぶくろてんまえ"}, "Prefecture": {"code": "40", "Name": "福岡県"}, "GeoPoint": {"longi": "130.41.16.89", "lati": "33.39.58.92", "longi_d": "130.688026", "lati_d": "33.666366", "gcs": "wgs84"}}}}
{"code": "673885", "payload": {"apiVersion": "1.0.0.0", "engineVersion": "", "Point": {"Station": {"code": "673885", "Name": "荒生田／西鉄バス", "Type": {"text": "bus", "detail": "local"}, "Yomi": "あろうだ"}, "Prefecture": {"code": "40", "Name": "福岡県"}, "GeoPoint": {"longi": "130.49.46.35", "lati": "33.51.54.59", "longi_d": "130.829541", "lati_d": "33.865165", "gcs": "wgs84"}}}}
{"code": "673884", "payload": {"apiVersion": "1.0.0.0", "engineVersion": "", "Point": {"Station": {"code": "673884", "Name": "荒生田公園下／西鉄バス", "Type": {"text": "bus", "detail": "local"}, "Yomi": "あろうだこうえんした"}, "Prefecture": {"code": "40", "Name": "福岡県"}, "GeoPoint": {"longi": "130.49.54.69", "lati": "33.51.55.90", "longi_d": "130.831858", "lati_d": "33.865528", "gcs": "wgs84"}}}}
{"code": "673544", "payload": {"apiVersion": "1.0.0.0", "engineVersion": "", "Point": {"Station": {"code": "673544", "Name": "淡島神社前／西鉄バス", "Type": {"text": "bus", "detail": "local"}, "Yomi": "あわしまじんじゃまえ"}, "Prefecture": {"code": "40", "Name": "福岡県"}, "GeoPoint": {"longi": "130.57.48.0", "lati": "33.54.52.5", "longi_d": "130.963333", "lati_d": "33.914459", "gcs": "wgs84"}}}}
{"code": "675587", "payload": {"apiVersion": "1.0.0.0", "engineVersion": "", "Point": {"Station": {"code": "675587", "Name": "安徳北小／西鉄バス", "Type": {"text": "bus", "detail": "local"}, "Yomi": "あんとくきたしょう"}, "Prefecture": {"code": "40", "Name": "福岡県"}, "GeoPoint": {"longi": "130.25.47.57", "lati": "33.30.54.64", "longi_d": "130.429879", "lati_d": "33.515178", "gcs": "wgs84"}}}}
{"code": "675585", "payload": {"apiVersion": "1.0.0.0", "engineVersion": "", "Point": {"Station": {"code": "675585", "Name": "安徳公園前／西鉄バス", "Type": {"text": "bus", "detail": "local"}, "Yomi": "あんとくこうえんまえ"}, "Prefecture": {"code": "40", "Name": "福岡県"}, "GeoPoint": {"longi": "130.25.57.68", "lati": "33.31.8.19", "longi_d": "130.43269", "lati_d": "33.518942", "gcs": "wgs84"}}}}
{"code": "675630", "payload": {"apiVersion": "1.0.0.0", "engineVersion": "", "Point": {"Station": {"code": "675630", "Name": "安徳小学校／西鉄バス", "Type": {"text": "bus", "detail": "local"}, "Yomi": "あんとくしょうがっこう"}, "Prefecture": {"code": "40", "Name": "福岡県"}, "GeoPoint": {"longi": "130.26.7.53", "lati": "33.30.38.84", "longi_d": "130.435424", "lati_d": "33.51079", "gcs": "wgs84"}}}}
{"code": "676732", "payload": {"apiVersion": "1.0.0.0", "engineVersion": "", "Point": {"Station": {"code": "676732", "Name": "飯倉／西鉄バス", "Type": {"text": "bus", "detail": "local"}, "Yomi": "いいくら"}, "Prefecture": {"code": "40", "Name": "福岡県"}, "GeoPoint": {"longi": "130.21.13.23", "lati": "33.33.43.52", "longi_d": "130.353675", "lati_d": "33.562089", "gcs": "wgs84"}}}}
{"code": "676730", "payload": {"apiVersion": "1.0.0.0", "engineVersion": "", "Point": {"Station": {"code": "676730", "Name": "飯倉一丁目／西鉄バス", "Type": {"text": "bus", "detail": "local"}, "Yomi": "いいくらいっちょうめ"}, "Prefecture": {"code": "40", "Name": "福岡県"}, "GeoPoint": {"longi": "130.21.21.1", "lati": "33.34.5.41", "longi_d": "130.355836", "lati_d": "33.568168", "gcs": "wgs84"}}}}
{"code": "676731", "payload": {"apiVersion": "1.0.0.0", "engineVersion": "", "Point": {"Station": {"code": "676731", "Name": "飯倉二丁目／西鉄バス", "Type": {"text": "bus", "detail": "local"}, "Yomi": "いいくらにちょうめ"}, "Prefecture": {"code": "40", "Name": "福岡県"}, "GeoPoint": {"longi": "130.21.16.89", "lati": "33.33.53.61", "longi_d": "130.354691", "lati_d": "33.564891", "gcs": "wgs84"}}}}
{"code": "677406", "payload": {"apiVersion": "1.0.0.0", "engineVersion": "", "Point": {"Station": {"code": "677406", "Name": "飯田新町／西鉄バス", "Type": {"text": "bus", "detail": "local"}, "Yomi": "いいだしんまち"}, "Prefecture": {"code": "40", "Name": "福岡県"}, "GeoPoint": {"longi": "130.42.4.17", "lati": "33.34.1.2", "longi_d": "130.70116", "lati_d": "33.566949", "gcs": "wgs84"}}}}
{"code": "677124", "payload": {"apiVersion": "1.0.0.0", "engineVersion": "", "Point": {"Station": {"code": "677124", "Name": "飯塚・あいタウン前／西鉄バス", "Type": {"text": "bus", "detail": "local"}, "Yomi": "いいづかあいたうんまえ"}, "Prefecture": {"code": "40", "Name": "福岡県"}, "GeoPoint": {"longi": "130.41.12.11", "lati": "33.38.28.35", "longi_d": "130.686697", "lati_d": "33.641209", "gcs": "wgs84"}}}}
{"code": "678241", "payload": {"apiVersion": "1.0.0.0", "engineVersion": "", "Point": {"Station": {"code": "678241", "Name": "飯塚・あいタウン前(循環)／西鉄バス", "Type": {"text": "bus", "detail": "local"}, "Yomi": "いいづかあいたうんまえ"}, "Prefecture": {"code": "40", "Name": "福岡県"}, "GeoPoint": {"longi": "130.41.11.80", "lati": "33.38.28.24", "longi_d": "130.68661", "lati_d": "33.641177", "gcs": "wgs84"}}}}
{"code": "677179", "payload": {"apiVersion": "1.0.0.0", "engineVersion": "", "Point": {"Station": {"code": "677179", "Name": "飯塚駅通／西鉄バス", "Type": {"text": "bus", "detail": "local"}, "Yomi": "いいづかえきどおり"}, "Prefecture": {"code": "40", "Name": "福岡県"}, "GeoPoint": {"longi": "130.41.14.48", "lati": "33.37.43.77", "longi_d": "130.687355", "lati_d": "33.628824", "gcs": "wgs84"}}}}
{"code": "678251", "payload": {"apiVersion": "1.0.0.0", "engineVersion": "", "Point": {"Station": {"code": "678251", "Name": "飯塚オートレース場／西鉄バス", "Type": {"text": "bus", "detail": "local"}, "Yomi": "いいづかおーとれーすじょう"}, "Prefecture": {"code": "40", "Name": "福岡県"}, "GeoPoint": {"longi": "130.42.27.58", "lati": "33.39.12.55", "longi_d": "130.707661", "lati_d": "33.653485", "gcs": "wgs84"}}}}
{"code": "677197", "payload": {"apiVersion": "1.0.0.0", "engineVersion": "", "Point": {"Station": {"code": "677197", "Name": "飯塚工業団地／西鉄バス", "Type": {"text": "bus", "detail": "local"}, "Yomi": "いいづかこうぎょうだんち"}, "Prefecture": {"code": "40", "Name": "福岡県"}, "GeoPoint": {"longi": "130.41.36.18", "lati": "33.36.46.21", "longi_d": "130.693384", "lati_d": "33.612836", "gcs": "wgs84"}}}}
{"code": "677245", "payload": {"apiVersion": "1.0.0.0", "engineVersion": "", "Point": {"Station": {"code": "677245", "Name": "飯塚市役所／西鉄バス", "Type": {"text": "bus", "detail": "local"}, "Yomi": "いいづかしやくしょ"}, "Prefecture": {"code": "40", "Name": "福岡県"}, "GeoPoint": {"longi": "130.41.31.4", "lati": "33.38.43.29", "longi_d": "130.691956", "lati_d": "33.645358", "gcs": "wgs84"}}}}
{"code": "678244", "payload": {"apiVersion": "1.0.0.0", "engineVersion": "", "Point": {"Station": {"code": "678244", "Name": "飯塚市役所(循環)／西鉄バス", "Type": {"text": "bus", "detail": "local"}, "Yomi": "いいづかしやくしょ"}, "Prefecture": {"code": "40", "Name": "福岡県"}, "GeoPoint": {"longi": "130.41.31.31", "lati": "33.38.43.23", "longi_d": "130.692029", "lati_d": "33.645341", "gcs": "wgs84"}}}}
{"code": "677130", "payload": {"apiVersion": "1.0.0.0", "engineVersion": "", "Point": {"Station": {"code": "677130", "Name": "飯塚農協／西鉄バス", "Type": {"text": "bus", "detail": "local"}, "Yomi": "いいづかのうきょう"}, "Prefecture": {"code": "40", "Name": "福岡県"}, "GeoPoint": {"longi": "130.40.32.41", "lati": "33.38.50.10", "longi_d": "130.675669", "lati_d": "33.647249", "gcs": "wgs84"}}}}
{"code": "677177", "payload": {"apiVersion": "1.0.0.0", "engineVersion": "", "Point": {"Station": {"code": "677177", "Name": "飯塚橋／西鉄バス", "Type": {"text": "bus", "detail": "local"}, "Yomi": "いいづかばし"}, "Prefecture": {"code": "40", "Name": "福岡県"}, "GeoPoint": {"longi": "130.41.11.56", "lati": "33.38.8.18", "longi_d": "130.686544", "lati_d": "33.635606", "gcs": "wgs84"}}}}
{"code": "677123", "payload": {"apiVersion": "1.0.0.0", "engineVersion": "", "Point": {"Station": {"code": "677123", "Name": "飯塚バスターミナル／西鉄バス", "Type": {"text": "bus", "detail": "local"}, "Yomi": "いいづかばすたーみなる"}, "Prefecture": {"code": "40", "Name": "福岡県"}, "GeoPoint": {"longi": "130.41.8.39", "lati": "33.38.27.4", "longi_d": "130.685663", "lati_d": "33.640844", "gcs": "wgs84"}}}}
{"code": "678240", "payload": {"apiVersion": "1.0.0.0", "engineVersion": "", "Point": {"Station": {"code": "678240", "Name": "飯塚バスターミナル(循環)／西鉄バス", "Type": {"text": "bus", "detail": "local"}, "Yomi": "いいづかばすたーみなる"}, "Prefecture": {"code": "40", "Name": "福岡県"}, "GeoPoint": {"longi": "130.41.7.98", "lati": "33.38.28.3", "longi_d": "130.685549", "lati_d": "33.64112", "gcs": "wgs84"}}}}
{"code": "677307", "payload": {"apiVersion": "1.0.0.0", "engineVersion": "", "Point": {"Station": {"code": "677307", "Name": "飯塚病院／西鉄バス", "Type": {"text": "bus", "detail": "local"}, "Yomi": "いいづかびょういん"}, "Prefecture": {"code": "40", "Name": "福岡県"}, "GeoPoint": {"longi": "130.41.27.54", "lati": "33.38.34.73", "longi_d": "130.690984", "lati_d": "33.64298", "gcs": "wgs84"}}}}
{"code": "678242", "payload": {"apiVersion": "1.0.0.0", "engineVersion": "", "Point": {"Station": {"code": "678242", "Name": "飯塚病院(循環)／西鉄バス", "Type": {"text": "bus", "detail": "local"}, "Yomi": "いいづかびょういん"}, "Prefecture": {"code": "40", "Name": "福岡県"}, "GeoPoint": {"longi": "130.41.26.51", "lati": "33.38.34.33", "longi_d": "130.690696", "lati_d": "33.64287", "gcs": "wgs84"}}}}
{"code": "677175", "payload": {"apiVersion": "1.0.0.0", "engineVersion": "", "Point": {"Station": {"code": "677175", "Name": "飯塚郵便局／西鉄バス", "Type": {"text": "bus", "detail": "local"}, "Yomi": "いいづかゆうびんきょく"}, "Prefecture": {"code": "40", "Name": "福岡県"}, "GeoPoint": {"longi": "130.41.10.4", "lati": "33.38.19.41", "longi_d": "130.686122", "lati_d": "33.638725", "gcs": "wgs84"}}}}
{"code": "675256", "payload": {"apiVersion": "1.0.0.0", "engineVersion": "", "Point": {"Station": {"code": "675256", "Name": "飯盛神社前／西鉄バス", "Type": {"text": "bus", "detail": "local"}, "Yomi": "いいもりじんじゃまえ"}, "Prefecture": {"code": "40", "Name": "福岡県"}, "GeoPoint": {"longi": "130.18.43.26", "lati": "33.32.15.91", "longi_d": "130.312016", "lati_d": "33.537754", "gcs": "wgs84"}}}}
{"code": "675258", "payload": {"apiVersion": "1.0.0.0", "engineVersion": "", "Point": {"Station": {"code": "675258", "Name": "飯盛保育園前／西鉄バス", "Type": {"text": "bus", "detail": "local"}, "Yomi": "いいもりほいくえんまえ"}, "Prefecture": {"code": "40", "Name": "福岡県"}, "GeoPoint": {"longi": "130.18.44.92", "lati": "33.32.21.30", "longi_d": "130.312479", "lati_d": "33.539249", "gcs": "wgs84"}}}}
{"code": "675723", "payload": {"apiVersion": "1.0.0.0", "engineVersion": "", "Point": {"Station": {"code": "675723", "Name": "イオン大野城／西鉄バス", "Type": {"text": "bus", "detail": "local"}, "Yomi": "いおんおおのじょう"}, "Prefecture": {"code": "40", "Name": "福岡県"}, "GeoPoint": {"longi": "130.28.32.7", "lati": "33.32.15.11", "longi_d": "130.475574", "lati_d": "33.53753", "gcs": "wgs84"}}}}
{"code": "677288", "payload": {"apiVersion": "1.0.0.0", "engineVersion": "", "Point": {"Station": {"code": "677288", "Name": "イオン穂波ショッピングセンター前／西鉄バス", "Type": {"text": "bus", "detail": "local"}, "Yomi": "いおんほなみしょっぴんぐせんたーまえ"}, "Prefecture": {"code": "40", "Name": "福岡県"}, "GeoPoint": {"longi": "130.40.21.79", "lati": "33.38.8.25", "longi_d": "130.67272", "lati_d": "33.635625", "gcs": "wgs84"}}}}
{"code": "678236", "payload": {"apiVersion": "1.0.0.0", "engineVersion": "", "Point": {"Station": {"code": "678236", "Name": "イオン穂波店(循環)／西鉄バス", "Type": {"text": "bus", "detail": "local"}, "Yomi": "いおんほなみてん"}, "Prefecture": {"code": "40", "Name": "福岡県"}, "GeoPoint": {"longi": "130.40.27.25", "lati": "33.38.10.37", "longi_d": "130.674237", "lati_d": "33.636214", "gcs": "wgs84"}}}}
{"code": "677878", "payload": {"apiVersion": "1.0.0.0", "engineVersion": "", "Point": {"Station": {"code": "677878", "Name": "イオンモール大牟田／西鉄バス", "Type": {"text": "bus", "detail": "local"}, "Yomi": "いおんもーるおおむた"}, "Prefecture": {"code": "40", "Name": "福岡県"}, "GeoPoint": {"longi": "130.25.44.97", "lati": "33.1.54.0", "longi_d": "130.429157", "lati_d": "33.031666", "gcs": "wgs84"}}}}
{"code": "678180", "payload": {"apiVersion": "1.0.0.0", "engineVersion": "", "Point": {"Station": {"code": "678180", "Name": "イオンモール大牟田南／西鉄バス", "Type": {"text": "bus", "detail": "local"}, "Yomi": "いおんもーるおおむたみなみ"}, "Prefecture": {"code": "40", "Name": "福岡県"}, "GeoPoint": {"longi": "130.25.44.29", "lati": "33.1.48.8", "longi_d": "130.428968", "lati_d": "33.030022", "gcs": "wgs84"}}}}
{"code": "676692", "payload": {"apiVersion": "1.0.0.0", "engineVersion": "", "Point": {"Station": {"code": "676692", "Name": "イオンモール香椎浜／西鉄バス", "Type": {"text": "bus", "detail": "local"}, "Yomi": "いおんもーるかしいはま"}, "Prefecture": {"code": "40", "Name": "福岡県"}, "GeoPoint": {"longi": "130.25.55.38", "lati": "33.39.25.90", "longi_d": "130.43205", "lati_d": "33.657194", "gcs": "wgs84"}}}}
{"code": "676983", "payload": {"apiVersion": "1.0.0.0", "engineVersion": "", "Point": {"Station": {"code": "676983", "Name": "イオンモール筑紫野／西鉄バス", "Type": {"text": "bus", "detail": "local"}, "Yomi": "いおんもーるちくしの"}, "Prefecture": {"code": "40", "Name": "福岡県"}, "GeoPoint": {"longi": "130.31.35.0", "lati": "33.28.54.2", "longi_d": "130.52639", "lati_d": "33.481672", "gcs": "wgs84"}}}}
{"code": "674161", "payload": {"apiVersion": "1.0.0.0", "engineVersion": "", "Point": {"Station": {"code": "674161", "Name": "イオンモール直方／西鉄バス", "Type": {"text": "bus", "detail": "local"}, "Yomi": "いおんもーるのおがた"}, "Prefecture": {"code": "40", "Name": "福岡県"}, "GeoPoint": {"longi": "130.45.1.29", "lati": "33.46.8.15", "longi_d": "130.750357", "lati_d": "33.768929", "gcs": "wgs84"}}}}
{"code": "677860", "payload": {"apiVersion": "1.0.0.0", "engineVersion": "", "Point": {"Station": {"code": "677860", "Name": "イオンモール福岡／西鉄バス", "Type": {"text": "bus", "detail": "local"}, "Yomi": "いおんもーるふくおか"}, "Prefecture": {"code": "40", "Name": "福岡県"}, "GeoPoint": {"longi": "130.28.51.8", "lati": "33.35.48.62", "longi_d": "130.480854", "lati_d": "33.59684", "gcs": "wgs84"}}}}
{"code": "677948", "payload": {"apiVersion": "1.0.0.0", "engineVersion": "", "Point": {"Station": {"code": "677948", "Name": "イオンモール福津前／西鉄バス", "Type": {"text": "bus", "detail": "local"}, "Yomi": "いおんもーるふくつまえ"}, "Prefecture": {"code": "40", "Name": "福岡県"}, "GeoPoint": {"longi": "130.29.46.10", "lati": "33.45.14.15", "longi_d": "130.49614", "lati_d": "33.753932", "gcs": "wgs84"}}}}
{"code": "673927", "payload": {"apiVersion": "1.0.0.0", "engineVersion": "", "Point": {"Station": {"code": "673927", "Name": "イオンモール八幡東／西鉄バス", "Type": {"text": "bus", "detail": "local"}, "Yomi": "いおんもーるやはたひがし"}, "Prefecture": {"code": "40", "Name": "福岡県"}, "GeoPoint": {"longi": "130.48.41.12", "lati": "33.52.11.21", "longi_d": "130.811423", "lati_d": "33.86978", "gcs": "wgs84"}}}}
{"code": "673538", "payload": {"apiVersion": "1.0.0.0", "engineVersion": "", "Point": {"Station": {"code": "673538", "Name": "伊川／西鉄バス", "Type": {"text": "bus", "detail": "local"}, "Yomi": "いかわ"}, "Prefecture": {"code": "40", "Name": "福岡県"}, "GeoPoint": {"longi": "130.58.46.93", "lati": "33.54.21.85", "longi_d": "130.979704", "lati_d": "33.906068", "gcs": "wgs84"}}}}
{"code": "677347", "payload": {"apiVersion": "1.0.0.0", "engineVersion": "", "Point": {"Station": {"code": "677347", "Name": "伊川(飯塚市)／西鉄バス", "Type": {"text": "bus", "detail": "local"}, "Yomi": "いかわ"}, "Prefecture": {"code": "40", "Name": "福岡県"}, "GeoPoint": {"longi": "130.38.49.21", "lati": "33.38.55.51", "longi_d": "130.647002", "lati_d": "33.648752", "gcs": "wgs84"}}}}
{"code": "677348", "payload": {"apiVersion": "1.0.0.0", "engineVersion": "", "Point": {"Station": {"code": "677348", "Name": "伊川温泉／西鉄バス", "Type": {"text": "bus", "detail": "local"}, "Yomi": "いかわおんせん"}, "Prefecture": {"code": "40", "Name": "福岡県"}, "GeoPoint": {"longi": "130.38.46.40", "lati": "33.38.49.63", "longi_d": "130.646221", "lati_d": "33.647121", "gcs": "wgs84"}}}}
{"code": "677138", "payload": {"apiVersion": "1.0.0.0", "engineVersion": "", "Point": {"Station": {"code": "677138", "Name": "伊川道／西鉄バス", "Type": {"text": "bus", "detail": "local"}, "Yomi": "いかわみち"}, "Prefecture": {"code": "40", "Name": "福岡県"}, "GeoPoint": {"longi": "130.39.2.89", "lati": "33.39.1.84", "longi_d": "130.650802", "lati_d": "33.650512", "gcs": "wgs84"}}}}
{"code": "675470", "payload": {"apiVersion": "1.0.0.0", "engineVersion": "", "Point": {"Station": {"code": "675470", "Name": "井開／西鉄バス", "Type": {"text": "bus", "detail": "local"}, "Yomi": "いがい"}, "Prefecture": {"code": "40", "Name": "福岡県"}, "GeoPoint": {"longi": "130.19.56.27", "lati": "33.33.43.46", "longi_d": "130.332298", "lati_d": "33.562071", "gcs": "wgs84"}}}}
{"code": "674364", "payload": {"apiVersion": "1.0.0.0", "engineVersion": "", "Point": {"Station": {"code": "674364", "Name": "医学部前／西鉄バス", "Type": {"text": "bus", "detail": "local"}, "Yomi": "いがくぶまえ"}, "Prefecture": {"code": "40", "Name": "福岡県"}, "GeoPoint": {"longi": "130.30.36.98", "lati": "33.19.40.73", "longi_d": "130.510273", "lati_d": "33.327981", "gcs": "wgs84"}}}}
{"code": "677003", "payload": {"apiVersion": "1.0.0.0", "engineVersion": "", "Point": {"Station": {"code": "677003", "Name": "いきいき情報センター／西鉄バス", "Type": {"text": "bus", "detail": "local"}, "Yomi": "いきいきじょうほうせんたー"}, "Prefecture": {"code": "40", "Name": "福岡県"}, "GeoPoint": {"longi": "130.31.35.93", "lati": "33.30.38.83", "longi_d": "130.526647", "lati_d": "33.510786", "gcs": "wgs84"}}}}
{"code": "675434", "payload": {"apiVersion": "1.0.0.0", "engineVersion": "", "Point": {"Station": {"code": "675434", "Name": "壱岐丘中学校／西鉄バス", "Type": {"text": "bus", "detail": "local"}, "Yomi": "いきがおかちゅうがっこう"}, "Prefecture": {"code": "40", "Name": "福岡県"}, "GeoPoint": {"longi": "130.18.51.38", "lati": "33.32.47.41", "longi_d": "130.314273", "lati_d": "33.546503", "gcs": "wgs84"}}}}
{"code": "675488", "payload": {"apiVersion": "1.0.0.0", "engineVersion": "", "Point": {"Station": {"code": "675488", "Name": "壱岐中学校／西鉄バス", "Type": {"text": "bus", "detail": "local"}, "Yomi": "いきちゅうがっこう"}, "Prefecture": {"code": "40", "Name": "福岡県"}, "GeoPoint": {"longi": "130.18.39.86", "lati": "33.33.44.86", "longi_d": "130.311073", "lati_d": "33.56246", "gcs": "wgs84"}}}}
{"code": "675441", "payload": {"apiVersion": "1.0.0.0", "engineVersion": "", "Point": {"Station": {"code": "675441", "Name": "壱岐農協前／西鉄バス", "Type": {"text": "bus", "detail": "local"}, "Yomi": "いきのうきょうまえ"}, "Prefecture": {"code": "40", "Name": "福岡県"}, "GeoPoint": {"longi": "130.19.21.44", "lati": "33.34.4.88", "longi_d": "130.322621", "lati_d": "33.568021", "gcs": "wgs84"}}}}
{"code": "675519", "payload": {"apiVersion": "1.0.0.0", "engineVersion": "", "Point": {"Station": {"code": "675519", "Name": "生の松原三丁目／西鉄バス", "Type": {"text": "bus", "detail": "local"}, "Yomi": "いきのまつばらさんちょうめ"}, "Prefecture": {"code": "40", "Name": "福岡県"}, "GeoPoint": {"longi": "130.18.4.88", "lati": "33.34.35.48", "longi_d": "130.301356", "lati_d": "33.576522", "gcs": "wgs84"}}}}
{"code": "675525", "payload": {"apiVersion": "1.0.0.0", "engineVersion": "", "Point": {"Station": {"code": "675525", "Name": "生の松原サンハイツ／西鉄バス", "Type": {"text": "bus", "detail": "local"}, "Yomi": "いきのまつばらさんはいつ"}, "Prefecture": {"code": "40", "Name": "福岡県"}, "GeoPoint": {"longi": "130.18.30.31", "lati": "33.34.18.21", "longi_d": "130.30842", "lati_d": "33.571726", "gcs": "wgs84"}}}}
{"code": "675517", "payload": {"apiVersion": "1.0.0.0", "engineVersion": "", "Point": {"Station": {"code": "675517", "Name": "生の松原団地／西鉄バス", "Type": {"text": "bus", "detail": "local"}, "Yomi": "いきのまつばらだんち"}, "Prefecture": {"code": "40", "Name": "福岡県"}, "GeoPoint": {"longi": "130.17.53.24", "lati": "33.34.16.44", "longi_d": "130.298121", "lati_d": "33.571234", "gcs": "wgs84"}}}}
{"code": "675518", "payload": {"apiVersion": "1.0.0.0", "engineVersion": "", "Point": {"Station": {"code": "675518", "Name": "生の松原団地入口／西鉄バス", "Type": {"text": "bus", "detail": "local"}, "Yomi": "いきのまつばらだんちいりぐち"}, "Prefecture": {"code": "40", "Name": "福岡県"}, "GeoPoint": {"longi": "130.18.2.11", "lati": "33.34.20.44", "longi_d": "130.300587", "lati_d": "33.572345", "gcs": "wgs84"}}}}
{"code": "675516", "payload": {"apiVersion": "1.0.0.0", "engineVersion": "", "Point": {"Station": {"code": "675516", "Name": "生の松原団地南／西鉄バス", "Type": {"text": "bus", "detail": "local"}, "Yomi": "いきのまつばらだんちみなみ"}, "Prefecture": {"code": "40", "Name": "福岡県"}, "GeoPoint": {"longi": "130.17.47.6", "lati": "33.34.9.66", "longi_d": "130.296405", "lati_d": "33.569351", "gcs": "wgs84"}}}}
{"code": "675498", "payload": {"apiVersion": "1.0.0.0", "engineVersion": "", "Point": {"Station": {"code": "675498", "Name": "壱岐東小学校前／西鉄バス", "Type": {"text": "bus", "detail": "local"}, "Yomi": "いきひがししょうがっこうまえ"}, "Prefecture": {"code": "40", "Name": "福岡県"}, "GeoPoint": {"longi": "130.19.6.89", "lati": "33.33.46.84", "longi_d": "130.318581", "lati_d": "33.563011", "gcs": "wgs84"}}}}
{"code": "675425", "payload": {"apiVersion": "1.0.0.0", "engineVersion": "", "Point": {"Station": {"code": "675425", "Name": "生松台一丁目／西鉄バス", "Type": {"text": "bus", "detail": "local"}, "Yomi": "いきまつだいいっちょうめ"}, "Prefecture": {"code": "40", "Name": "福岡県"}, "GeoPoint": {"longi": "130.17.54.52", "lati": "33.33.29.76", "longi_d": "130.298476", "lati_d": "33.558266", "gcs": "wgs84"}}}}
{"code": "675424", "payload": {"apiVersion": "1.0.0.0", "engineVersion": "", "Point": {"Station": {"code": "675424", "Name": "生松台入口／西鉄バス", "Type": {"text": "bus", "detail": "local"}, "Yomi": "いきまつだいいりぐち"}, "Prefecture": {"code": "40", "Name": "福岡県"}, "GeoPoint": {"longi": "130.18.2.74", "lati": "33.33.36.61", "longi_d": "130.30076", "lati_d": "33.560169", "gcs": "wgs84"}}}}
{"code": "675428", "payload": {"apiVersion": "1.0.0.0", "engineVersion": "", "Point": {"Station": {"code": "675428", "Name": "生松台三丁目／西鉄バス", "Type": {"text": "bus", "detail": "local"}, "Yomi": "いきまつだいさんちょうめ"}, "Prefecture": {"code": "40", "Name": "福岡県"}, "GeoPoint": {"longi": "130.18.0.95", "lati": "33.33.12.41", "longi_d": "130.300263", "lati_d": "33.553446", "gcs": "wgs84"}}}}
{"code": "675427", "payload": {"apiVersion": "1.0.0.0", "engineVersion": "", "Point": {"Station": {"code": "675427", "Name": "生松台二丁目／西鉄バス", "Type": {"text": "bus", "detail": "local"}, "Yomi": "いきまつだいにちょうめ"}, "Prefecture": {"code": "40", "Name": "福岡県"}, "GeoPoint": {"longi": "130.17.54.60", "lati": "33.33.20.89", "longi_d": "130.298499", "lati_d": "33.555802", "gcs": "wgs84"}}}}
{"code": "675432", "payload": {"apiVersion": "1.0.0.0", "engineVersion": "", "Point": {"Station": {"code": "675432", "Name": "壱岐南小学校入口／西鉄バス", "Type": {"text": "bus", "detail": "local"}, "Yomi": "いきみなみしょうがっこういりぐち"}, "Prefecture": {"code": "40", "Name": "福岡県"}, "GeoPoint": {"longi": "130.18.45.99", "lati": "33.33.8.76", "longi_d": "130.312776", "lati_d": "33.552433", "gcs": "wgs84"}}}}
{"code": "677978", "payload": {"apiVersion": "1.0.0.0", "engineVersion": "", "Point": {"Station": {"code": "677978", "Name": "壱岐南小学校前／西鉄バス", "Type": {"text": "bus", "detail": "local"}, "Yomi": "いきみなみしょうがっこうまえ"}, "Prefecture": {"code": "40", "Name": "福岡県"}, "GeoPoint": {"longi": "130.18.52.20", "lati": "33.33.11.70", "longi_d": "130.314501", "lati_d": "33.55325", "gcs": "wgs84"}}}}
{"code": "677133", "payload": {"apiVersion": "1.0.0.0", "engineVersion": "", "Point": {"Station": {"code": "677133", "Name": "伊岐須／西鉄バス", "Type": {"text": "bus", "detail": "local"}, "Yomi": "いぎす"}, "Prefecture": {"code": "40", "Name": "福岡県"}, "GeoPoint": {"longi": "130.39.58.58", "lati": "33.39.7.65", "longi_d": "130.666273", "lati_d": "33.652126", "gcs": "wgs84"}}}}
{"code": "677134", "payload": {"apiVersion": "1.0.0.0", "engineVersion": "", "Point": {"Station": {"code": "677134", "Name": "伊岐須小学校／西鉄バス", "Type": {"text": "bus", "detail": "local"}, "Yomi": "いぎすしょうがっこう"}, "Prefecture": {"code": "40", "Name": "福岡県"}, "GeoPoint": {"longi": "130.39.40.59", "lati": "33.39.7.65", "longi_d": "130.661276", "lati_d": "33.652126", "gcs": "wgs84"}}}}
{"code": "676316", "payload": {"apiVersion": "1.0.0.0", "engineVersion": "", "Point": {"Station": {"code": "676316", "Name": "池浦／西鉄バス", "Type": {"text": "bus", "detail": "local"}, "Yomi": "いけうら"}, "Prefecture": {"code": "40", "Name": "福岡県"}, "GeoPoint": {"longi": "130.32.32.45", "lati": "33.49.49.15", "longi_d": "130.542347", "lati_d": "33.830319", "gcs": "wgs84"}}}}
{"code": "677527", "payload": {"apiVersion": "1.0.0.0", "engineVersion": "", "Point": {"Station": {"code": "677527", "Name": "池尻／西鉄バス", "Type": {"text": "bus", "detail": "local"}, "Yomi": "いけじり"}, "Prefecture": {"code": "40", "Name": "福岡県"}, "GeoPoint": {"longi": "130.47.51.89", "lati": "33.37.18.8", "longi_d": "130.797746", "lati_d": "33.62169", "gcs": "wgs84"}}}}
{"code": "674429", "payload": {"apiVersion": "1.0.0.0", "engineVersion": "", "Point": {"Station": {"code": "674429", "Name": "池田(広川町)／西鉄バス", "Type": {"text": "bus", "detail": "local"}, "Yomi": "いけだ"}, "Prefecture": {"code": "40", "Name": "福岡県"}, "GeoPoint": {"longi": "130.32.35.72", "lati": "33.14.59.75", "longi_d": "130.543254", "lati_d": "33.249931", "gcs": "wgs84"}}}}
{"code": "676325", "payload": {"apiVersion": "1.0.0.0", "engineVersion": "", "Point": {"Station": {"code": "676325", "Name": "池田(宗像市)／西鉄バス", "Type": {"text": "bus", "detail": "local"}, "Yomi": "いけだ"}, "Prefecture": {"code": "40", "Name": "福岡県"}, "GeoPoint": {"longi": "130.32.55.41", "lati": "33.50.40.79", "longi_d": "130.548726", "lati_d": "33.844664", "gcs": "wgs84"}}}}
{"code": "676776", "payload": {"apiVersion": "1.0.0.0", "engineVersion": "", "Point": {"Station": {"code": "676776", "Name": "池田(福岡市)／西鉄バス", "Type": {"text": "bus", "detail": "local"}, "Yomi": "いけだ"}, "Prefecture": {"code": "40", "Name": "福岡県"}, "GeoPoint": {"longi": "130.21.23.40", "lati": "33.29.23.72", "longi_d": "130.3565", "lati_d": "33.489921", "gcs": "wgs84"}}}}
{"code": "675102", "payload": {"apiVersion": "1.0.0.0", "engineVersion": "", "Point": {"Station": {"code": "675102", "Name": "池田橋／西鉄バス", "Type": {"text": "bus", "detail": "local"}, "Yomi": "いけだばし"}, "Prefecture": {"code": "40", "Name": "福岡県"}, "GeoPoint": {"longi": "130.28.50.20", "lati": "33.4.0.16", "longi_d": "130.480612", "lati_d": "33.06671", "gcs": "wgs84"}}}}
{"code": "674070", "payload": {"apiVersion": "1.0.0.0", "engineVersion": "", "Point": {"Station": {"code": "674070", "Name": "池田町／西鉄バス", "Type": {"text": "bus", "detail": "local"}, "Yomi": "いけだまち"}, "Prefecture": {"code": "40", "Name": "福岡県"}, "GeoPoint": {"longi": "130.43.26.74", "lati": "33.48.53.52", "longi_d": "130.724093", "lati_d": "33.814866", "gcs": "wgs84"}}}}
{"code": "675703", "payload": {"apiVersion": "1.0.0.0", "engineVersion": "", "Point": {"Station": {"code": "675703", "Name": "池の上／西鉄バス", "Type": {"text": "bus", "detail": "local"}, "Yomi": "いけのうえ"}, "Prefecture": {"code": "40", "Name": "福岡県"}, "GeoPoint": {"longi": "130.26.52.27", "lati": "33.33.23.64", "longi_d": "130.447853", "lati_d": "33.556566", "gcs": "wgs84"}}}}
{"code": "676326", "payload": {"apiVersion": "1.0.0.0", "engineVersion": "", "Point": {"Station": {"code": "676326", "Name": "池野支所前／西鉄バス", "Type": {"text": "bus", "detail": "local"}, "Yomi": "いけのししょまえ"}, "Prefecture": {"code": "40", "Name": "福岡県"}, "GeoPoint": {"longi": "130.32.31.12", "lati": "33.50.59.80", "longi_d": "130.541977", "lati_d": "33.849945", "gcs": "wgs84"}}}}
{"code": "677070", "payload": {"apiVersion": "1.0.0.0", "engineVersion": "", "Point": {"Station": {"code": "677070", "Name": "池の下／西鉄バス", "Type": {"text": "bus", "detail": "local"}, "Yomi": "いけのした"}, "Prefecture": {"code": "40", "Name": "福岡県"}, "GeoPoint": {"longi": "130.26.37.67", "lati": "33.31.1.78", "longi_d": "130.443797", "lati_d": "33.517162", "gcs": "wgs84"}}}}
{"code": "674341", "payload": {"apiVersion": "1.0.0.0", "engineVersion": "", "Point": {"Station": {"code": "674341", "Name": "池の谷／西鉄バス", "Type": {"text": "bus", "detail": "local"}, "Yomi": "いけのたに"}, "Prefecture": {"code": "40", "Name": "福岡県"}, "GeoPoint": {"longi": "130.32.37.48", "lati": "33.18.21.47", "longi_d": "130.543746", "lati_d": "33.305964", "gcs": "wgs84"}}}}
{"code": "674320", "payload": {"apiVersion": "1.0.0.0", "engineVersion": "", "Point": {"Station": {"code": "674320", "Name": "池の本／西鉄バス", "Type": {"text": "bus", "detail": "local"}, "Yomi": "いけのもと"}, "Prefecture": {"code": "40", "Name": "福岡県"}, "GeoPoint": {"longi": "130.29.26.97", "lati": "33.13.13.63", "longi_d": "130.490826", "lati_d": "33.220453", "gcs": "wgs84"}}}}
{"code": "675603", "payload": {"apiVersion": "1.0.0.0", "engineVersion": "", "Point": {"Station": {"code": "675603", "Name": "井河／西鉄バス", "Type": {"text": "bus", "detail": "local"}, "Yomi": "いごう"}, "Prefecture": {"code": "40", "Name": "福岡県"}, "GeoPoint": {"longi": "130.24.53.59", "lati": "33.31.8.25", "longi_d": "130.414886", "lati_d": "33.518958", "gcs": "wgs84"}}}}
{"code": "675181", "payload": {"apiVersion": "1.0.0.0", "engineVersion": "", "Point": {"Station": {"code": "675181", "Name": "伊崎／西鉄バス", "Type": {"text": "bus", "detail": "local"}, "Yomi": "いざき"}, "Prefecture": {"code": "40", "Name": "福岡県"}, "GeoPoint": {"longi": "130.22.13.50", "lati": "33.35.50.8", "longi_d": "130.370416", "lati_d": "33.597244", "gcs": "wgs84"}}}}
{"code": "676880", "payload": {"apiVersion": "1.0.0.0", "engineVersion": "", "Point": {"Station": {"code": "676880", "Name": "医師会館・ソフトリサーチパーク前／西鉄バス", "Type": {"text": "bus", "detail": "local"}, "Yomi": "いしかいかんそふとりさーちぱーくまえ"}, "Prefecture": {"code": "40", "Name": "福岡県"}, "GeoPoint": {"longi": "130.21.22.43", "lati": "33.35.33.76", "longi_d": "130.356232", "lati_d": "33.592711", "gcs": "wgs84"}}}}
{"code": "675039", "payload": {"apiVersion": "1.0.0.0", "engineVersion": "", "Point": {"Station": {"code": "675039", "Name": "石崎(久留米市)／西鉄バス", "Type": {"text": "bus", "detail": "local"}, "Yomi": "いしざき"}, "Prefecture": {"code": "40", "Name": "福岡県"}, "GeoPoint": {"longi": "130.33.59.63", "lati": "33.19.45.49", "longi_d": "130.566565", "lati_d": "33.329303", "gcs": "wgs84"}}}}
{"code": "673257", "payload": {"apiVersion": "1.0.0.0", "engineVersion": "", "Point": {"Station": {"code": "673257", "Name": "石田／西鉄バス", "Type": {"text": "bus", "detail": "local"}, "Yomi": "いしだ"}, "Prefecture": {"code": "40", "Name": "福岡県"}, "GeoPoint": {"longi": "130.53.19.20", "lati": "33.50.24.40", "longi_d": "130.888667", "lati_d": "33.840112", "gcs": "wgs84"}}}}
{"code": "676664", "payload": {"apiVersion": "1.0.0.0", "engineVersion": "", "Point": {"Station": {"code": "676664", "Name": "石堂大橋／西鉄バス", "Type": {"text": "bus", "detail": "local"}, "Yomi": "いしどうおおはし"}, "Prefecture": {"code": "40", "Name": "福岡県"}, "GeoPoint": {"longi": "130.24.35.61", "lati": "33.36.10.13", "longi_d": "130.409891", "lati_d": "33.602813", "gcs": "wgs84"}}}}
{"code": "676094", "payload": {"apiVersion": "1.0.0.0", "engineVersion": "", "Point": {"Station": {"code": "676094", "Name": "石の橋／西鉄バス", "Type": {"text": "bus", "detail": "local"}, "Yomi": "いしのはし"}, "Prefecture": {"code": "40", "Name": "福岡県"}, "GeoPoint": {"longi": "130.40.16.26", "lati": "33.24.55.53", "longi_d": "130.671183", "lati_d": "33.415424", "gcs": "wgs84"}}}}
{"code": "673660", "payload": {"apiVersion": "1.0.0.0", "engineVersion": "", "Point": {"Station": {"code": "673660", "Name": "石原鉄工団地入口／西鉄バス", "Type": {"text": "bus", "detail": "local"}, "Yomi": "いしはらてっこうだんちいりぐち"}, "Prefecture": {"code": "40", "Name": "福岡県"}, "GeoPoint": {"longi": "130.51.43.23", "lati": "33.47.28.10", "longi_d": "130.862008", "lati_d": "33.791139", "gcs": "wgs84"}}}}
{"code": "673659", "payload": {"apiVersion": "1.0.0.0", "engineVersion": "", "Point": {"Station": {"code": "673659", "Name": "石原町／西鉄バス", "Type": {"text": "bus", "detail": "local"}, "Yomi": "いしはらまち"}, "Prefecture": {"code": "40", "Name": "福岡県"}, "GeoPoint": {"longi": "130.51.44.89", "lati": "33.47.15.77", "longi_d": "130.86247", "lati_d": "33.787715", "gcs": "wgs84"}}}}
{"code": "676076", "payload": {"apiVersion": "1.0.0.0", "engineVersion": "", "Point": {"Station": {"code": "676076", "Name": "石櫃／西鉄バス", "Type": {"text": "bus", "detail": "local"}, "Yomi": "いしびつ"}, "Prefecture": {"code": "40", "Name": "福岡県"}, "GeoPoint": {"longi": "130.34.48.96", "lati": "33.27.48.55", "longi_d": "130.580266", "lati_d": "33.463486", "gcs": "wgs84"}}}}
{"code": "677692", "payload": {"apiVersion": "1.0.0.0", "engineVersion": "", "Point": {"Station": {"code": "677692", "Name": "石堀場／西鉄バス", "Type": {"text": "bus", "detail": "local"}, "Yomi": "いしほりば"}, "Prefecture": {"code": "40", "Name": "福岡県"}, "GeoPoint": {"longi": "130.40.19.33", "lati": "33.48.31.61", "longi_d": "130.672037", "lati_d": "33.808779", "gcs": "wgs84"}}}}
{"code": "677324", "payload": {"apiVersion": "1.0.0.0", "engineVersion": "", "Point": {"Station": {"code": "677324", "Name": "石丸(飯塚市)／西鉄バス", "Type": {"text": "bus", "detail": "local"}, "Yomi": "いしまる"}, "Prefecture": {"code": "40", "Name": "福岡県"}, "GeoPoint": {"longi": "130.43.1.15", "lati": "33.40.54.20", "longi_d": "130.716986", "lati_d": "33.681721", "gcs": "wgs84"}}}}
{"code": "675447", "payload": {"apiVersion": "1.0.0.0", "engineVersion": "", "Point": {"Station": {"code": "675447", "Name": "石丸三丁目／西鉄バス", "Type": {"text": "bus", "detail": "local"}, "Yomi": "いしまるさんちょうめ"}, "Prefecture": {"code": "40", "Name": "福岡県"}, "GeoPoint": {"longi": "130.18.48.47", "lati": "33.34.15.95", "longi_d": "130.313464", "lati_d": "33.571098", "gcs": "wgs84"}}}}
{"code": "677857", "payload": {"apiVersion": "1.0.0.0", "engineVersion": "", "Point": {"Station": {"code": "677857", "Name": "石丸新町(都市高速下)／西鉄バス", "Type": {"text": "bus", "detail": "local"}, "Yomi": "いしまるしんまち"}, "Prefecture": {"code": "40", "Name": "福岡県"}, "GeoPoint": {"longi": "130.19.19.2", "lati": "33.34.41.63", "longi_d": "130.321951", "lati_d": "33.57823", "gcs": "wgs84"}}}}
{"code": "677858", "payload": {"apiVersion": "1.0.0.0", "engineVersion": "", "Point": {"Station": {"code": "677858", "Name": "石丸新町(新室見)／西鉄バス", "Type": {"text": "bus", "detail": "local"}, "Yomi": "いしまるしんまち"}, "Prefecture": {"code": "40", "Name": "福岡県"}, "GeoPoint": {"longi": "130.19.23.43", "lati": "33.34.37.19", "longi_d": "130.323174", "lati_d": "33.576998", "gcs": "wgs84"}}}}
{"code": "677323", "payload": {"apiVersion": "1.0.0.0", "engineVersion": "", "Point": {"Station": {"code": "677323", "Name": "石丸団地／西鉄バス", "Type": {"text": "bus", "detail": "local"}, "Yomi": "いしまるだんち"}, "Prefecture": {"code": "40", "Name": "福岡県"}, "GeoPoint": {"longi": "130.42.51.96", "lati": "33.40.37.67", "longi_d": "130.714434", "lati_d": "33.67713", "gcs": "wgs84"}}}}
{"code": "677838", "payload": {"apiVersion": "1.0.0.0", "engineVersion": "", "Point": {"Station": {"code": "677838", "Name": "石丸二丁目(公民館前)／西鉄バス", "Type": {"text": "bus", "detail": "local"}, "Yomi": "いしまるにちょうめ"}, "Prefecture": {"code": "40", "Name": "福岡県"}, "GeoPoint": {"longi": "130.19.11.79", "lati": "33.34.19.53", "longi_d": "130.319941", "lati_d": "33.572093", "gcs": "wgs84"}}}}
{"code": "677839", "payload": {"apiVersion": "1.0.0.0", "engineVersion": "", "Point": {"Station": {"code": "677839", "Name": "石丸二丁目(都市高下)／西鉄バス", "Type": {"text": "bus", "detail": "local"}, "Yomi": "いしまるにちょうめ"}, "Prefecture": {"code": "40", "Name": "福岡県"}, "GeoPoint": {"longi": "130.19.0.44", "lati": "33.34.16.25", "longi_d": "130.316788", "lati_d": "33.571181", "gcs": "wgs84"}}}}
{"code": "677669", "payload": {"apiVersion": "1.0.0.0", "engineVersion": "", "Point": {"Station": {"code": "677669", "Name": "石山谷／西鉄バス", "Type": {"text": "bus", "detail": "local"}, "Yomi": "いしやまだに"}, "Prefecture": {"code": "40", "Name": "福岡県"}, "GeoPoint": {"longi": "130.42.8.21", "lati": "33.46.5.13", "longi_d": "130.702281", "lati_d": "33.768092", "gcs": "wgs84"}}}}
{"code": "678133", "payload": {"apiVersion": "1.0.0.0", "engineVersion": "", "Point": {"Station": {"code": "678133", "Name": "井尻駅北／西鉄バス", "Type": {"text": "bus", "detail": "local"}, "Yomi": "いじりえききた"}, "Prefecture": {"code": "40", "Name": "福岡県"}, "GeoPoint": {"longi": "130.26.32.59", "lati": "33.33.16.79", "longi_d": "130.442385", "lati_d": "33.554663", "gcs": "wgs84"}}}}
{"code": "675707", "payload": {"apiVersion": "1.0.0.0", "engineVersion": "", "Point": {"Station": {"code": "675707", "Name": "井尻駅西口／西鉄バス", "Type": {"text": "bus", "detail": "local"}, "Yomi": "いじりえきにしぐち"}, "Prefecture": {"code": "40", "Name": "福岡県"}, "GeoPoint": {"longi": "130.26.36.81", "lati": "33.33.5.66", "longi_d": "130.443559", "lati_d": "33.551572", "gcs": "wgs84"}}}}
{"code": "675706", "payload": {"apiVersion": "1.0.0.0", "engineVersion": "", "Point": {"Station": {"code": "675706", "Name": "井尻駅東口／西鉄バス", "Type": {"text": "bus", "detail": "local"}, "Yomi": "いじりえきひがしぐち"}, "Prefecture": {"code": "40", "Name": "福岡県"}, "GeoPoint": {"longi": "130.26.38.88", "lati": "33.33.9.43", "longi_d": "130.444134", "lati_d": "33.552619", "gcs": "wgs84"}}}}
{"code": "675658", "payload": {"apiVersion": "1.0.0.0", "engineVersion": "", "Point": {"Station": {"code": "675658", "Name": "井尻六ツ角／西鉄バス", "Type": {"text": "bus", "detail": "local"}, "Yomi": "いじりむつかど"}, "Prefecture": {"code": "40", "Name": "福岡県"}, "GeoPoint": {"longi": "130.26.31.8", "lati": "33.32.55.25", "longi_d": "130.441965", "lati_d": "33.548681", "gcs": "wgs84"}}}}
{"code": "675649", "payload": {"apiVersion": "1.0.0.0", "engineVersion": "", "Point": {"Station": {"code": "675649", "Name": "泉／西鉄バス", "Type": {"text": "bus", "detail": "local"}, "Yomi": "いずみ"}, "Prefecture": {"code": "40", "Name": "福岡県"}, "GeoPoint": {"longi": "130.26.19.67", "lati": "33.31.39.2", "longi_d": "130.438797", "lati_d": "33.527504", "gcs": "wgs84"}}}}
{"code": "674100", "payload": {"apiVersion": "1.0.0.0", "engineVersion": "", "Point": {"Station": {"code": "674100", "Name": "泉ケ浦一丁目／西鉄バス", "Type": {"text": "bus", "detail": "local"}, "Yomi": "いずみがうらいっちょうめ"}, "Prefecture": {"code": "40", "Name": "福岡県"}, "GeoPoint": {"longi": "130.43.19.89", "lati": "33.50.44.91", "longi_d": "130.722192", "lati_d": "33.845809", "gcs": "wgs84"}}}}
{"code": "674101", "payload": {"apiVersion": "1.0.0.0", "engineVersion": "", "Point": {"Station": {"code": "674101", "Name": "泉ケ浦三丁目／西鉄バス", "Type": {"text": "bus", "detail": "local"}, "Yomi": "いずみがうらさんちょうめ"}, "Prefecture": {"code": "40", "Name": "福岡県"}, "GeoPoint": {"longi": "130.43.12.88", "lati": "33.50.46.22", "longi_d": "130.720246", "lati_d": "33.846173", "gcs": "wgs84"}}}}
{"code": "676994", "payload": {"apiVersion": "1.0.0.0", "engineVersion": "", "Point": {"Station": {"code": "676994", "Name": "泉ケ丘(太宰府市)／西鉄バス", "Type": {"text": "bus", "detail": "local"}, "Yomi": "いずみがおか"}, "Prefecture": {"code": "40", "Name": "福岡県"}, "GeoPoint": {"longi": "130.32.9.93", "lati": "33.29.56.86", "longi_d": "130.536093", "lati_d": "33.499129", "gcs": "wgs84"}}}}
{"code": "677430", "payload": {"apiVersion": "1.0.0.0", "engineVersion": "", "Point": {"Station": {"code": "677430", "Name": "伊田駅／西鉄バス", "Type": {"text": "bus", "detail": "local"}, "Yomi": "いたえき"}, "Prefecture": {"code": "40", "Name": "福岡県"}, "GeoPoint": {"longi": "130.49.3.99", "lati": "33.38.34.24", "longi_d": "130.817774", "lati_d": "33.642844", "gcs": "wgs84"}}}}
{"code": "677427", "payload": {"apiVersion": "1.0.0.0", "engineVersion": "", "Point": {"Station": {"code": "677427", "Name": "伊田大橋／西鉄バス", "Type": {"text": "bus", "detail": "local"}, "Yomi": "いたおおはし"}, "Prefecture": {"code": "40", "Name": "福岡県"}, "GeoPoint": {"longi": "130.48.55.2", "lati": "33.38.48.81", "longi_d": "130.815283", "lati_d": "33.646891", "gcs": "wgs84"}}}}
{"code": "675666", "payload": {"apiVersion": "1.0.0.0", "engineVersion": "", "Point": {"Station": {"code": "675666", "Name": "板付／西鉄バス", "Type": {"text": "bus", "detail": "local"}, "Yomi": "いたづけ"}, "Prefecture": {"code": "40", "Name": "福岡県"}, "GeoPoint": {"longi": "130.27.5.8", "lati": "33.34.11.53", "longi_d": "130.451411", "lati_d": "33.56987", "gcs": "wgs84"}}}}
{"code": "675708", "payload": {"apiVersion": "1.0.0.0", "engineVersion": "", "Point": {"Station": {"code": "675708", "Name": "板付新橋／西鉄バス", "Type": {"text": "bus", "detail": "local"}, "Yomi": "いたづけしんばし"}, "Prefecture": {"code": "40", "Name": "福岡県"}, "GeoPoint": {"longi": "130.27.6.64", "lati": "33.33.25.30", "longi_d": "130.451845", "lati_d": "33.557027", "gcs": "wgs84"}}}}
{"code": "675193", "payload": {"apiVersion": "1.0.0.0", "engineVersion": "", "Point": {"Station": {"code": "675193", "Name": "板付団地第一／西鉄バス", "Type": {"text": "bus", "detail": "local"}, "Yomi": "いたづけだんちだいいち"}, "Prefecture": {"code": "40", "Name": "福岡県"}, "GeoPoint": {"longi": "130.26.52.49", "lati": "33.33.59.72", "longi_d": "130.447914", "lati_d": "33.56659", "gcs": "wgs84"}}}}
{"code": "675194", "payload": {"apiVersion": "1.0.0.0", "engineVersion": "", "Point": {"Station": {"code": "675194", "Name": "板付団地第二／西鉄バス", "Type": {"text": "bus", "detail": "local"}, "Yomi": "いたづけだんちだいに"}, "Prefecture": {"code": "40", "Name": "福岡県"}, "GeoPoint": {"longi": "130.26.57.65", "lati": "33.33.54.28", "longi_d": "130.449347", "lati_d": "33.565076", "gcs": "wgs84"}}}}
{"code": "675696", "payload": {"apiVersion": "1.0.0.0", "engineVersion": "", "Point": {"Station": {"code": "675696", "Name": "板付中央公園前／西鉄バス", "Type": {"text": "bus", "detail": "local"}, "Yomi": "いたづけちゅうおうこうえんまえ"}, "Prefecture": {"code": "40", "Name": "福岡県"}, "GeoPoint": {"longi": "130.26.50.65", "lati": "33.33.58.11", "longi_d": "130.447403", "lati_d": "33.566143", "gcs": "wgs84"}}}}
{"code": "675670", "payload": {"apiVersion": "1.0.0.0", "engineVersion": "", "Point": {"Station": {"code": "675670", "Name": "板付中学校前／西鉄バス", "Type": {"text": "bus", "detail": "local"}, "Yomi": "いたづけちゅうがっこうまえ"}, "Prefecture": {"code": "40", "Name": "福岡県"}, "GeoPoint": {"longi": "130.27.42.62", "lati": "33.33.19.92", "longi_d": "130.461839", "lati_d": "33.555532", "gcs": "wgs84"}}}}
{"code": "675204", "payload": {"apiVersion": "1.0.0.0", "engineVersion": "", "Point": {"Station": {"code": "675204", "Name": "板付七丁目／西鉄バス", "Type": {"text": "bus", "detail": "local"}, "Yomi": "いたづけななちょうめ"}, "Prefecture": {"code": "40", "Name": "福岡県"}, "GeoPoint": {"longi": "130.27.19.50", "lati": "33.33.28.99", "longi_d": "130.455417", "lati_d": "33.558052", "gcs": "wgs84"}}}}
{"code": "675667", "payload": {"apiVersion": "1.0.0.0", "engineVersion": "", "Point": {"Station": {"code": "675667", "Name": "板付二丁目／西鉄バス", "Type": {"text": "bus", "detail": "local"}, "Yomi": "いたづけにちょうめ"}, "Prefecture": {"code": "40", "Name": "福岡県"}, "GeoPoint": {"longi": "130.27.15.71", "lati": "33.34.0.85", "longi_d": "130.454364", "lati_d": "33.566901", "gcs": "wgs84"}}}}
{"code": "675202", "payload": {"apiVersion": "1.0.0.0", "engineVersion": "", "Point": {"Station": {"code": "675202", "Name": "板付農協前／西鉄バス", "Type": {"text": "bus", "detail": "local"}, "Yomi": "いたづけのうきょうまえ"}, "Prefecture": {"code": "40", "Name": "福岡県"}, "GeoPoint": {"longi": "130.27.4.46", "lati": "33.33.47.1", "longi_d": "130.451239", "lati_d": "33.56306", "gcs": "wgs84"}}}}
{"code": "675203", "payload": {"apiVersion": "1.0.0.0", "engineVersion": "", "Point": {"Station": {"code": "675203", "Name": "板付四丁目／西鉄バス", "Type": {"text": "bus", "detail": "local"},